[{"id": "CCBjleg5-fmdfQSrMoVpjQ", "alias": "el-rodeo-south-portland", "name": "El Rodeo", "image_url": "https://s3-media2.fl.yelpcdn.com/bphoto/9tsTIVLjsVq3meLEwlFu9g/o.jpg", "is_closed": false, "url": "https://www.yelp.com/biz/el-rodeo-south-portland?adjust_creative=zwxV_le4sw48DviTKOGYUg&utm_campaign=yelp_api_v3&utm_medium=api_v3_business_search&utm_source=zwxV_le4sw48DviTKOGYUg", "review_count": 252, "categories": [{"alias": "mexican", "title": "Mexican"}, {"alias": "bars", "title": "Bars"}, {"alias": "seafood", "title": "Seafood"}], "rating": 4.0, "coordinates": {"latitude": 43.6355, "longitude": -70.32043}, "transactions": ["pickup"], "price": "$$", "location": {"address1": "147 Western Ave", "address2": "", "address3": "", "city": "South Portland", "zip_code": "04106", "country": "US", "state": "ME", "display_address": ["147 Western Ave", "South Portland, ME 04106"]}, "phone": "+12077738851", "display_phone": "(207) 773-8851", "distance": 2227.9286137140853}, {"id": "_At24cTKAQj8AYJ26yNysw", "alias": "taco-trio-south-portland", "name": "Taco Trio", "image_url": "https://s3-media2.fl.yelpcdn.com/bphoto/m1u2T13caX3Q7YB3lc_9cg/o.jpg", "is_closed": false, "url": "https://www.yelp.com/biz/taco-trio-south-portland?adjust_creative=zwxV_le4sw48DviTKOGYUg&utm_campaign=yelp_api_v3&utm_medium=api_v3_business_search&utm_source=zwxV_le4sw48DviTKOGYUg", "review_count": 326, "categories": [{"alias": "mexican", "title": "Mexican"}], "rating": 4.5, "coordinates": {"latitude": 43.6399281, "longitude": -70.2536776}, "transactions": ["delivery", "pickup"], "price": "$", "location": {"address1": "60 Ocean St", "address2": "", "address3": "", "city": "South Portland", "zip_code": "04106", "country": "US", "state": "ME", "display_address": ["60 Ocean St", "South Portland, ME 04106"]}, "phone": "+12077679055", "display_phone": "(207) 767-9055", "distance": 3123.7084896346496}, {"id": "9fT5ZGTb8YQ0dAYlRuW_9g", "alias": "casita-corazon-south-portland", "name": "Casita Corazon", "image_url": "https://s3-media3.fl.yelpcdn.com/bphoto/A26WIPg6yKaeDJL_DN4qCw/o.jpg", "is_closed": false, "url": "https://www.yelp.com/biz/casita-corazon-south-portland?adjust_creative=zwxV_le4sw48DviTKOGYUg&utm_campaign=yelp_api_v3&utm_medium=api_v3_business_search&utm_source=zwxV_le4sw48DviTKOGYUg", "review_count": 20, "categories": [{"alias": "mexican", "title": "Mexican"}], "rating": 5.0, "coordinates": {"latitude": 43.64756, "longitude": -70.23171}, "transactions": [], "location": {"address1": "158 Benjamin W Pickett St", "address2": "", "address3": null, "city": "South Portland", "zip_code": "04106", "country": "US", "state": "ME", "display_address": ["158 Benjamin W Pickett St", "South Portland, ME 04106"]}, "phone": "", "display_phone": "", "distance": 5009.90969057867}, {"id": "ZXAgknN0Vazfjb6mifcHdA", "alias": "taco-escobarr-portland", "name": "Taco Escobarr", "image_url": "https://s3-media3.fl.yelpcdn.com/bphoto/lmU7modt8OS3EwfnFqvbLQ/o.jpg", "is_closed": false, "url": "https://www.yelp.com/biz/taco-escobarr-portland?adjust_creative=zwxV_le4sw48DviTKOGYUg&utm_campaign=yelp_api_v3&utm_medium=api_v3_business_search&utm_source=zwxV_le4sw48DviTKOGYUg", "review_count": 676, "categories": [{"alias": "tacos", "title": "Tacos"}], "rating": 4.0, "coordinates": {"latitude": 43.6553325, "longitude": -70.2615689}, "transactions": ["delivery"], "price": "$$", "location": {"address1": "548 Congress St", "address2": "", "address3": "", "city": "Portland", "zip_code": "04101", "country": "US", "state": "ME", "display_address": ["548 Congress St", "Portland, ME 04101"]}, "phone": "+12075419097", "display_phone": "(207) 541-9097", "distance": 3322.406213692651}, {"id": "sxEyHlFw3E6MqEQYMdEfnA", "alias": "tacos-la-poblanita-south-portland-2", "name": "Tacos La Poblanita", "image_url": "https://s3-media2.fl.yelpcdn.com/bphoto/GHKLWDRQ141WQNfeU3IaYA/o.jpg", "is_closed": false, "url": "https://www.yelp.com/biz/tacos-la-poblanita-south-portland-2?adjust_creative=zwxV_le4sw48DviTKOGYUg&utm_campaign=yelp_api_v3&utm_medium=api_v3_business_search&utm_source=zwxV_le4sw48DviTKOGYUg", "review_count": 12, "categories": [{"alias": "foodtrucks", "title": "Food Trucks"}, {"alias": "mexican", "title": "Mexican"}], "rating": 5.0, "coordinates": {"latitude": 43.63305470962841, "longitude": -70.33388219999999}, "transactions": [], "location": {"address1": "364 Maine Mall Rd", "address2": null, "address3": "", "city": "South Portland", "zip_code": "04106", "country": "US", "state": "ME", "display_address": ["364 Maine Mall Rd", "South Portland, ME 04106"]}, "phone": "+12076180198", "display_phone": "(207) 618-0198", "distance": 3385.7843392734285}, {"id": "aqUXp1A-Dktc90qcyrLREg", "alias": "rio-bravo-tacos-and-tequila-westbrook", "name": "Rio Bravo Tacos and Tequila", "image_url": "https://s3-media3.fl.yelpcdn.com/bphoto/xXrvZRVLsAABffVdzGeLuw/o.jpg", "is_closed": false, "url": "https://www.yelp.com/biz/rio-bravo-tacos-and-tequila-westbrook?adjust_creative=zwxV_le4sw48DviTKOGYUg&utm_campaign=yelp_api_v3&utm_medium=api_v3_business_search&utm_source=zwxV_le4sw48DviTKOGYUg", "review_count": 64, "categories": [{"alias": "mexican", "title": "Mexican"}], "rating": 4.5, "coordinates": {"latitude": 43.67799685814813, "longitude": -70.32957024007217}, "transactions": ["delivery", "pickup"], "price": "$$", "location": {"address1": "11 Main St", "address2": "Ste 14", "address3": null, "city": "Westbrook", "zip_code": "04092", "country": "US", "state": "ME", "display_address": ["11 Main St", "Ste 14", "Westbrook, ME 04092"]}, "phone": "+12078879494", "display_phone": "(207) 887-9494", "distance": 5657.270553316252}, {"id": "MZTXFUsZakZwj0NIT0naFg", "alias": "jefe-juans-portland", "name": "Jefe Juan's", "image_url": "https://s3-media1.fl.yelpcdn.com/bphoto/wSBtAOOzKCq-mWpJwpOMjg/o.jpg", "is_closed": false, "url": "https://www.yelp.com/biz/jefe-juans-portland?adjust_creative=zwxV_le4sw48DviTKOGYUg&utm_campaign=yelp_api_v3&utm_medium=api_v3_business_search&utm_source=zwxV_le4sw48DviTKOGYUg", "review_count": 29, "categories": [{"alias": "mexican", "title": "Mexican"}], "rating": 4.5, "coordinates": {"latitude": 43.6559654371511, "longitude": -70.2539363130927}, "transactions": [], "location": {"address1": "29 Wharf St", "address2": "", "address3": null, "city": "Portland", "zip_code": "04101", "country": "US", "state": "ME", "display_address": ["29 Wharf St", "Portland, ME 04101"]}, "phone": "", "display_phone": "", "distance": 3840.30803481827}, {"id": "U2JgcmSSnpi3XnDrhB_yaA", "alias": "coco-bar-and-grill-biddeford", "name": "Coco Bar & Grill", "image_url": "https://s3-media1.fl.yelpcdn.com/bphoto/beQcJ7TiY5O2TramXPNLHw/o.jpg", "is_closed": false, "url": "https://www.yelp.com/biz/coco-bar-and-grill-biddeford?adjust_creative=zwxV_le4sw48DviTKOGYUg&utm_campaign=yelp_api_v3&utm_medium=api_v3_business_search&utm_source=zwxV_le4sw48DviTKOGYUg", "review_count": 36, "categories": [{"alias": "tacos", "title": "Tacos"}], "rating": 5.0, "coordinates": {"latitude": 43.49302895625947, "longitude": -70.45607093721627}, "transactions": ["delivery"], "location": {"address1": "11 Adams St", "address2": "", "address3": null, "city": "Biddeford", "zip_code": "04005", "country": "US", "state": "ME", "display_address": ["11 Adams St", "Biddeford, ME 04005"]}, "phone": "+12075714543", "display_phone": "(207) 571-4543", "distance": 20598.61669323934}, {"id": "P7wDmf3vR2G69ixWPod3MQ", "alias": "bird-and-co-portland", "name": "Bird & Co", "image_url": "https://s3-media2.fl.yelpcdn.com/bphoto/BoK9xSyuyGculkshXlgPxQ/o.jpg", "is_closed": false, "url": "https://www.yelp.com/biz/bird-and-co-portland?adjust_creative=zwxV_le4sw48DviTKOGYUg&utm_campaign=yelp_api_v3&utm_medium=api_v3_business_search&utm_source=zwxV_le4sw48DviTKOGYUg", "review_count": 184, "categories": [{"alias": "tacos", "title": "Tacos"}], "rating": 4.5, "coordinates": {"latitude": 43.67037, "longitude": -70.28425}, "transactions": ["delivery"], "price": "$$", "location": {"address1": "539 Deering Ave", "address2": null, "address3": "", "city": "Portland", "zip_code": "04103", "country": "US", "state": "ME", "display_address": ["539 Deering Ave", "Portland, ME 04103"]}, "phone": "+12077474056", "display_phone": "(207) 747-4056", "distance": 3972.600633280437}, {"id": "uEJH1D-mycy4TCYDZYoIUQ", "alias": "sal-de-la-tierra-portland", "name": "Sal De La Tierra", "image_url": "https://s3-media2.fl.yelpcdn.com/bphoto/4wg9xrRO_B4tH_0WK7EgbQ/o.jpg", "is_closed": false, "url": "https://www.yelp.com/biz/sal-de-la-tierra-portland?adjust_creative=zwxV_le4sw48DviTKOGYUg&utm_campaign=yelp_api_v3&utm_medium=api_v3_business_search&utm_source=zwxV_le4sw48DviTKOGYUg", "review_count": 41, "categories": [{"alias": "latin", "title": "Latin American"}, {"alias": "mexican", "title": "Mexican"}], "rating": 4.5, "coordinates": {"latitude": 43.6545925, "longitude": -70.2626717}, "transactions": ["delivery"], "location": {"address1": "581 Congress St", "address2": null, "address3": null, "city": "Portland", "zip_code": "04101", "country": "US", "state": "ME", "display_address": ["581 Congress St", "Portland, ME 04101"]}, "phone": "+12077611600", "display_phone": "(207) 761-1600", "distance": 3203.221372295914}, {"id": "KHtam6xmiRDiyilP-WiOug", "alias": "lenora-portland", "name": "Lenora", "image_url": "https://s3-media1.fl.yelpcdn.com/bphoto/STCZ-L06jiC4VKe0C3fPgw/o.jpg", "is_closed": false, "url": "https://www.yelp.com/biz/lenora-portland?adjust_creative=zwxV_le4sw48DviTKOGYUg&utm_campaign=yelp_api_v3&utm_medium=api_v3_business_search&utm_source=zwxV_le4sw48DviTKOGYUg", "review_count": 39, "categories": [{"alias": "mexican", "title": "Mexican"}, {"alias": "breakfast_brunch", "title": "Breakfast & Brunch"}, {"alias": "cocktailbars", "title": "Cocktail Bars"}], "rating": 4.0, "coordinates": {"latitude": 43.65576860774107, "longitude": -70.25571783691989}, "transactions": [], "location": {"address1": "2 Portland Sq", "address2": "", "address3": null, "city": "Portland", "zip_code": "04101", "country": "US", "state": "ME", "display_address": ["2 Portland Sq", "Portland, ME 04101"]}, "phone": "+12075360423", "display_phone": "(207) 536-0423", "distance": 3713.6736479073875}, {"id": "JP8f13BBJt3-dcub_MC4cg", "alias": "restaurante-el-corazon-portland-6", "name": "Restaurante El Corazon", "image_url": "https://s3-media1.fl.yelpcdn.com/bphoto/PNqbtrN-gLBKalxltEBbqQ/o.jpg", "is_closed": false, "url": "https://www.yelp.com/biz/restaurante-el-corazon-portland-6?adjust_creative=zwxV_le4sw48DviTKOGYUg&utm_campaign=yelp_api_v3&utm_medium=api_v3_business_search&utm_source=zwxV_le4sw48DviTKOGYUg", "review_count": 189, "categories": [{"alias": "bars", "title": "Bars"}, {"alias": "mexican", "title": "Mexican"}], "rating": 4.0, "coordinates": {"latitude": 43.652991, "longitude": -70.267121}, "transactions": ["delivery"], "price": "$$", "location": {"address1": "190 State St", "address2": "", "address3": null, "city": "Portland", "zip_code": "04101", "country": "US", "state": "ME", "display_address": ["190 State St", "Portland, ME 04101"]}, "phone": "+12075361354", "display_phone": "(207) 536-1354", "distance": 2804.480738237865}, {"id": "IoqtiLN38JCrmdEY12k_0Q", "alias": "tostones-cafe-cape-elizabeth", "name": "Tostones Cafe", "image_url": "https://s3-media3.fl.yelpcdn.com/bphoto/WayhvrN-FDSfjMPiOvb3Zw/o.jpg", "is_closed": false, "url": "https://www.yelp.com/biz/tostones-cafe-cape-elizabeth?adjust_creative=zwxV_le4sw48DviTKOGYUg&utm_campaign=yelp_api_v3&utm_medium=api_v3_business_search&utm_source=zwxV_le4sw48DviTKOGYUg", "review_count": 22, "categories": [{"alias": "latin", "title": "Latin American"}], "rating": 4.5, "coordinates": {"latitude": 43.5938102202537, "longitude": -70.2275075}, "transactions": [], "location": {"address1": "327 Ocean House Rd", "address2": "", "address3": null, "city": "Cape Elizabeth", "zip_code": "04107", "country": "US", "state": "ME", "display_address": ["327 Ocean House Rd", "Cape Elizabeth, ME 04107"]}, "phone": "+12077475168", "display_phone": "(207) 747-5168", "distance": 6919.994368171086}, {"id": "sQTDV3Py7BFYxfMMiz6VBw", "alias": "quiero-cafe-portland-4", "name": "Quiero Cafe", "image_url": "https://s3-media3.fl.yelpcdn.com/bphoto/6v8GJd9DPBPMZtrJLxhGJA/o.jpg", "is_closed": false, "url": "https://www.yelp.com/biz/quiero-cafe-portland-4?adjust_creative=zwxV_le4sw48DviTKOGYUg&utm_campaign=yelp_api_v3&utm_medium=api_v3_business_search&utm_source=zwxV_le4sw48DviTKOGYUg", "review_count": 103, "categories": [{"alias": "latin", "title": "Latin American"}, {"alias": "empanadas", "title": "Empanadas"}], "rating": 4.5, "coordinates": {"latitude": 43.6541787486643, "longitude": -70.2722756673693}, "transactions": ["delivery"], "location": {"address1": "3 Deering Ave", "address2": "", "address3": null, "city": "Portland", "zip_code": "04101", "country": "US", "state": "ME", "display_address": ["3 Deering Ave", "Portland, ME 04101"]}, "phone": "+12075367033", "display_phone": "(207) 536-7033", "distance": 2650.450919324386}, {"id": "qqdRSXBK2TJU-LnPcO0wlA", "alias": "el-rayo-taqueria-scarborough-2", "name": "El Rayo Taqueria", "image_url": "https://s3-media4.fl.yelpcdn.com/bphoto/MeeP1ICOPHTAXWapPJbXvg/o.jpg", "is_closed": false, "url": "https://www.yelp.com/biz/el-rayo-taqueria-scarborough-2?adjust_creative=zwxV_le4sw48DviTKOGYUg&utm_campaign=yelp_api_v3&utm_medium=api_v3_business_search&utm_source=zwxV_le4sw48DviTKOGYUg", "review_count": 228, "categories": [{"alias": "mexican", "title": "Mexican"}], "rating": 3.5, "coordinates": {"latitude": 43.5905859535598, "longitude": -70.3366632199463}, "transactions": ["delivery"], "price": "$$", "location": {"address1": "245 US Route 1", "address2": "", "address3": "", "city": "Scarborough", "zip_code": "04074", "country": "US", "state": "ME", "display_address": ["245 US Route 1", "Scarborough, ME 04074"]}, "phone": "+12078838226", "display_phone": "(207) 883-8226", "distance": 6116.780913053383}, {"id": "BxixZgDS_RrQVsdQ1oKG1A", "alias": "1800-mexican-restaurant-me-scarborough", "name": "1800 Mexican Restaurant Me", "image_url": "https://s3-media1.fl.yelpcdn.com/bphoto/W3Mvx3TcYejaRlMVY1hV2g/o.jpg", "is_closed": false, "url": "https://www.yelp.com/biz/1800-mexican-restaurant-me-scarborough?adjust_creative=zwxV_le4sw48DviTKOGYUg&utm_campaign=yelp_api_v3&utm_medium=api_v3_business_search&utm_source=zwxV_le4sw48DviTKOGYUg", "review_count": 6, "categories": [{"alias": "mexican", "title": "Mexican"}], "rating": 3.5, "coordinates": {"latitude": 43.5953045, "longitude": -70.32761719999999}, "transactions": ["delivery", "pickup"], "location": {"address1": "183 US-1", "address2": null, "address3": null, "city": "Scarborough", "zip_code": "04074", "country": "US", "state": "ME", "display_address": ["183 US-1", "Scarborough, ME 04074"]}, "phone": "+12073030007", "display_phone": "(207) 303-0007", "distance": 5271.115360082992}, {"id": "TBNhMREmwKU2kCnvyTtnxA", "alias": "tequileras-mexican-restaurant-scarborough", "name": "Tequileras Mexican Restaurant", "image_url": "https://s3-media4.fl.yelpcdn.com/bphoto/K0_u_-07KGpCdcwtBQQZOw/o.jpg", "is_closed": false, "url": "https://www.yelp.com/biz/tequileras-mexican-restaurant-scarborough?adjust_creative=zwxV_le4sw48DviTKOGYUg&utm_campaign=yelp_api_v3&utm_medium=api_v3_business_search&utm_source=zwxV_le4sw48DviTKOGYUg", "review_count": 21, "categories": [{"alias": "mexican", "title": "Mexican"}, {"alias": "chickenshop", "title": "Chicken Shop"}, {"alias": "seafood", "title": "Seafood"}], "rating": 3.5, "coordinates": {"latitude": 43.59604, "longitude": -70.32716}, "transactions": ["delivery", "pickup"], "location": {"address1": "183 US-1", "address2": "", "address3": null, "city": "Scarborough", "zip_code": "04074", "country": "US", "state": "ME", "display_address": ["183 US-1", "Scarborough, ME 04074"]}, "phone": "+12072198905", "display_phone": "(207) 219-8905", "distance": 5271.115360082992}, {"id": "I1aETEsRcnnEftQvLwzzNA", "alias": "terlingua-portland", "name": "Terlingua", "image_url": "https://s3-media3.fl.yelpcdn.com/bphoto/iYUKp81JTmsH-PESlOaZOQ/o.jpg", "is_closed": false, "url": "https://www.yelp.com/biz/terlingua-portland?adjust_creative=zwxV_le4sw48DviTKOGYUg&utm_campaign=yelp_api_v3&utm_medium=api_v3_business_search&utm_source=zwxV_le4sw48DviTKOGYUg", "review_count": 345, "categories": [{"alias": "bbq", "title": "Barbeque"}, {"alias": "latin", "title": "Latin American"}, {"alias": "bars", "title": "Bars"}], "rating": 4.5, "coordinates": {"latitude": 43.664676267002065, "longitude": -70.25191722903502}, "transactions": ["delivery"], "price": "$$", "location": {"address1": "40 Washington Ave", "address2": "", "address3": "", "city": "Portland", "zip_code": "04101", "country": "US", "state": "ME", "display_address": ["40 Washington Ave", "Portland, ME 04101"]}, "phone": "", "display_phone": "", "distance": 4605.6644509625485}, {"id": "yeARMygH7XsFGxoDNIZmeA", "alias": "taqueria-207-old-orchard-beach", "name": "Taqueria 207", "image_url": "https://s3-media2.fl.yelpcdn.com/bphoto/E63S8KJoXRq3tl4G6kx12A/o.jpg", "is_closed": false, "url": "https://www.yelp.com/biz/taqueria-207-old-orchard-beach?adjust_creative=zwxV_le4sw48DviTKOGYUg&utm_campaign=yelp_api_v3&utm_medium=api_v3_business_search&utm_source=zwxV_le4sw48DviTKOGYUg", "review_count": 118, "categories": [{"alias": "newmexican", "title": "New Mexican Cuisine"}, {"alias": "mexican", "title": "Mexican"}], "rating": 4.5, "coordinates": {"latitude": 43.5079510773822, "longitude": -70.4103561945615}, "transactions": ["delivery"], "location": {"address1": "2 Ocean Park Rd", "address2": "", "address3": null, "city": "Old Orchard Beach", "zip_code": "04064", "country": "US", "state": "ME", "display_address": ["2 Ocean Park Rd", "Old Orchard Beach, ME 04064"]}, "phone": "+12079378732", "display_phone": "(207) 937-8732", "distance": 17051.595062106404}, {"id": "-XlNIzVtvWzim7RLx5I9bQ", "alias": "el-rodeo-scarborough", "name": "El Rodeo", "image_url": "https://s3-media3.fl.yelpcdn.com/bphoto/nvTMr6L_6uU1QAIOXhE_Hg/o.jpg", "is_closed": false, "url": "https://www.yelp.com/biz/el-rodeo-scarborough?adjust_creative=zwxV_le4sw48DviTKOGYUg&utm_campaign=yelp_api_v3&utm_medium=api_v3_business_search&utm_source=zwxV_le4sw48DviTKOGYUg", "review_count": 5, "categories": [{"alias": "mexican", "title": "Mexican"}, {"alias": "cocktailbars", "title": "Cocktail Bars"}, {"alias": "desserts", "title": "Desserts"}], "rating": 3.5, "coordinates": {"latitude": 43.569686, "longitude": -70.3893502}, "transactions": ["delivery", "pickup"], "location": {"address1": "623 US-1", "address2": "", "address3": null, "city": "Scarborough", "zip_code": "04074", "country": "US", "state": "ME", "display_address": ["623 US-1", "Scarborough, ME 04074"]}, "phone": "+12078830078", "display_phone": "(207) 883-0078", "distance": 10694.522651392672}, {"id": "E-NG0heYYRJAg_x6ZYD6mg", "alias": "genji-ramen-portland", "name": "Genji Ramen", "image_url": "https://s3-media1.fl.yelpcdn.com/bphoto/a4-JTeHt0JPi9SAa69eM4g/o.jpg", "is_closed": false, "url": "https://www.yelp.com/biz/genji-ramen-portland?adjust_creative=zwxV_le4sw48DviTKOGYUg&utm_campaign=yelp_api_v3&utm_medium=api_v3_business_search&utm_source=zwxV_le4sw48DviTKOGYUg", "review_count": 1, "categories": [{"alias": "mexican", "title": "Mexican"}, {"alias": "ramen", "title": "Ramen"}, {"alias": "sushi", "title": "Sushi Bars"}], "rating": 5.0, "coordinates": {"latitude": 43.66353, "longitude": -70.25858}, "transactions": [], "location": {"address1": "2 Somerset St", "address2": null, "address3": null, "city": "Portland", "zip_code": "04101", "country": "US", "state": "ME", "display_address": ["2 Somerset St", "Portland, ME 04101"]}, "phone": "+12077747711", "display_phone": "(207) 774-7711", "distance": 4149.152852821989}, {"id": "MIp_jeP3KajHGjAztU5NtQ", "alias": "tacos-la-poblanita-westbrook", "name": "Tacos La Poblanita", "image_url": "https://s3-media2.fl.yelpcdn.com/bphoto/FWjqp1JrLKiIYbnSlsMxRg/o.jpg", "is_closed": false, "url": "https://www.yelp.com/biz/tacos-la-poblanita-westbrook?adjust_creative=zwxV_le4sw48DviTKOGYUg&utm_campaign=yelp_api_v3&utm_medium=api_v3_business_search&utm_source=zwxV_le4sw48DviTKOGYUg", "review_count": 3, "categories": [{"alias": "tacos", "title": "Tacos"}], "rating": 4.5, "coordinates": {"latitude": 43.679103875590975, "longitude": -70.3677996}, "transactions": [], "location": {"address1": "57 Bridge St", "address2": "", "address3": null, "city": "Westbrook", "zip_code": "04092", "country": "US", "state": "ME", "display_address": ["57 Bridge St", "Westbrook, ME 04092"]}, "phone": "", "display_phone": "", "distance": 7829.063781918145}, {"id": "ep89N0vYTv8ReEvs2fNwtQ", "alias": "margaritas-mexican-restaurant-portland", "name": "Margaritas Mexican Restaurant", "image_url": "https://s3-media2.fl.yelpcdn.com/bphoto/hguyR8qPB3Xo74qC_1LW5g/o.jpg", "is_closed": false, "url": "https://www.yelp.com/biz/margaritas-mexican-restaurant-portland?adjust_creative=zwxV_le4sw48DviTKOGYUg&utm_campaign=yelp_api_v3&utm_medium=api_v3_business_search&utm_source=zwxV_le4sw48DviTKOGYUg", "review_count": 112, "categories": [{"alias": "mexican", "title": "Mexican"}, {"alias": "bars", "title": "Bars"}], "rating": 3.5, "coordinates": {"latitude": 43.65134859626326, "longitude": -70.27934391216418}, "transactions": ["pickup", "delivery"], "price": "$$", "location": {"address1": "242 St. John St", "address2": "", "address3": "", "city": "Portland", "zip_code": "04102", "country": "US", "state": "ME", "display_address": ["242 St. John St", "Portland, ME 04102"]}, "phone": "+12078746444", "display_phone": "(207) 874-6444", "distance": 2076.400628997391}, {"id": "o3JfESWKEJL13NGJCQtPxw", "alias": "cabana-portland", "name": "Cabana", "image_url": "https://s3-media2.fl.yelpcdn.com/bphoto/Ctr5zV8d67-5iYAeeSgEJQ/o.jpg", "is_closed": false, "url": "https://www.yelp.com/biz/cabana-portland?adjust_creative=zwxV_le4sw48DviTKOGYUg&utm_campaign=yelp_api_v3&utm_medium=api_v3_business_search&utm_source=zwxV_le4sw48DviTKOGYUg", "review_count": 15, "categories": [{"alias": "latin", "title": "Latin American"}, {"alias": "bars", "title": "Bars"}], "rating": 4.5, "coordinates": {"latitude": 43.65914, "longitude": -70.25232}, "transactions": [], "location": {"address1": "111 Middle St", "address2": null, "address3": "", "city": "Portland", "zip_code": "04101", "country": "US", "state": "ME", "display_address": ["111 Middle St", "Portland, ME 04101"]}, "phone": "", "display_phone": "", "distance": 4150.782365827609}, {"id": "P_tWNrgicxlzyxe1lQPdlg", "alias": "pacifico-saco", "name": "Pacifico", "image_url": "https://s3-media1.fl.yelpcdn.com/bphoto/flDf8n67FD6xWDGxU9r9Pw/o.jpg", "is_closed": false, "url": "https://www.yelp.com/biz/pacifico-saco?adjust_creative=zwxV_le4sw48DviTKOGYUg&utm_campaign=yelp_api_v3&utm_medium=api_v3_business_search&utm_source=zwxV_le4sw48DviTKOGYUg", "review_count": 72, "categories": [{"alias": "latin", "title": "Latin American"}], "rating": 4.5, "coordinates": {"latitude": 43.49513826063885, "longitude": -70.44922925101928}, "transactions": [], "price": "$$$", "location": {"address1": "120 Main St", "address2": "Ste 254", "address3": null, "city": "Saco", "zip_code": "04072", "country": "US", "state": "ME", "display_address": ["120 Main St", "Ste 254", "Saco, ME 04072"]}, "phone": "+12074942776", "display_phone": "(207) 494-2776", "distance": 20066.53592127492}, {"id": "nEY3Ka_KBKvGb79gvf5N9Q", "alias": "el-rayo-taqueria-portland-2", "name": "El Rayo Taqueria", "image_url": "https://s3-media3.fl.yelpcdn.com/bphoto/-cw40hipgoTAKRXlNHsnbg/o.jpg", "is_closed": false, "url": "https://www.yelp.com/biz/el-rayo-taqueria-portland-2?adjust_creative=zwxV_le4sw48DviTKOGYUg&utm_campaign=yelp_api_v3&utm_medium=api_v3_business_search&utm_source=zwxV_le4sw48DviTKOGYUg", "review_count": 96, "categories": [{"alias": "mexican", "title": "Mexican"}], "rating": 3.5, "coordinates": {"latitude": 43.656605, "longitude": -70.257865}, "transactions": ["delivery"], "price": "$$", "location": {"address1": "26 Free St", "address2": null, "address3": null, "city": "Portland", "zip_code": "04101", "country": "US", "state": "ME", "display_address": ["26 Free St", "Portland, ME 04101"]}, "phone": "+12077808226", "display_phone": "(207) 780-8226", "distance": 3640.4127126830135}, {"id": "DQbKjG0SD56xU2qPfyWOdQ", "alias": "flores-restaurant-portland-2", "name": "Flores Restaurant", "image_url": "https://s3-media4.fl.yelpcdn.com/bphoto/T2p8tXQMo0I6LJFknG55ZA/o.jpg", "is_closed": false, "url": "https://www.yelp.com/biz/flores-restaurant-portland-2?adjust_creative=zwxV_le4sw48DviTKOGYUg&utm_campaign=yelp_api_v3&utm_medium=api_v3_business_search&utm_source=zwxV_le4sw48DviTKOGYUg", "review_count": 49, "categories": [{"alias": "salvadoran", "title": "Salvadoran"}], "rating": 4.5, "coordinates": {"latitude": 43.6549912617957, "longitude": -70.2753192186356}, "transactions": ["pickup", "delivery"], "price": "$", "location": {"address1": "863 Congress St", "address2": "", "address3": "", "city": "Portland", "zip_code": "04102", "country": "US", "state": "ME", "display_address": ["863 Congress St", "Portland, ME 04102"]}, "phone": "+12078990313", "display_phone": "(207) 899-0313", "distance": 2589.24769760629}, {"id": "bnVbv-wlDBu6hrelrunOag", "alias": "tacos-y-tequila-cape-elizabeth-cape-eliz", "name": "Tacos Y Tequila Cape Elizabeth", "image_url": "https://s3-media3.fl.yelpcdn.com/bphoto/FBAJzoXOE93abSmd1LOCxw/o.jpg", "is_closed": false, "url": "https://www.yelp.com/biz/tacos-y-tequila-cape-elizabeth-cape-eliz?adjust_creative=zwxV_le4sw48DviTKOGYUg&utm_campaign=yelp_api_v3&utm_medium=api_v3_business_search&utm_source=zwxV_le4sw48DviTKOGYUg", "review_count": 70, "categories": [{"alias": "mexican", "title": "Mexican"}], "rating": 4.0, "coordinates": {"latitude": 43.573909, "longitude": -70.220812}, "transactions": ["pickup", "delivery"], "location": {"address1": "517 Ocean House Rd", "address2": null, "address3": "", "city": "CAPE ELIZ", "zip_code": "04107", "country": "US", "state": "ME", "display_address": ["517 Ocean House Rd", "CAPE ELIZ, ME 04107"]}, "phone": "+12078350011", "display_phone": "(207) 835-0011", "distance": 8883.697871762983}, {"id": "8oMhbgvsHrarOZajhTvr4A", "alias": "tacos-del-seoul-portland", "name": "Tacos Del Seoul", "image_url": "https://s3-media3.fl.yelpcdn.com/bphoto/pHT9WpiY6tn4rLvF4UQQ8w/o.jpg", "is_closed": false, "url": "https://www.yelp.com/biz/tacos-del-seoul-portland?adjust_creative=zwxV_le4sw48DviTKOGYUg&utm_campaign=yelp_api_v3&utm_medium=api_v3_business_search&utm_source=zwxV_le4sw48DviTKOGYUg", "review_count": 27, "categories": [{"alias": "foodtrucks", "title": "Food Trucks"}, {"alias": "korean", "title": "Korean"}, {"alias": "mexican", "title": "Mexican"}], "rating": 5.0, "coordinates": {"latitude": 43.661792755127, "longitude": -70.2584991455078}, "transactions": [], "price": "$", "location": {"address1": "", "address2": "", "address3": null, "city": "Portland", "zip_code": "04101", "country": "US", "state": "ME", "display_address": ["Portland, ME 04101"]}, "phone": "+12075221958", "display_phone": "(207) 522-1958", "distance": 4196.1287832203225}, {"id": "BwJnhjN-ogCmvYY864Lkww", "alias": "azul-tequila-gorham-2", "name": "Azul Tequila", "image_url": "https://s3-media4.fl.yelpcdn.com/bphoto/5yLfmhAUNK05F7wz3n2Isg/o.jpg", "is_closed": false, "url": "https://www.yelp.com/biz/azul-tequila-gorham-2?adjust_creative=zwxV_le4sw48DviTKOGYUg&utm_campaign=yelp_api_v3&utm_medium=api_v3_business_search&utm_source=zwxV_le4sw48DviTKOGYUg", "review_count": 37, "categories": [{"alias": "mexican", "title": "Mexican"}, {"alias": "chicken_wings", "title": "Chicken Wings"}, {"alias": "salad", "title": "Salad"}], "rating": 4.5, "coordinates": {"latitude": 43.680378, "longitude": -70.443102}, "transactions": ["pickup", "delivery"], "location": {"address1": "29 School St", "address2": "", "address3": null, "city": "Gorham", "zip_code": "04038", "country": "US", "state": "ME", "display_address": ["29 School St", "Gorham, ME 04038"]}, "phone": "+12072222008", "display_phone": "(207) 222-2008", "distance": 13167.223729694862}, {"id": "gL212-XNz-g9LzmVeq41gQ", "alias": "dos-naciones-portland", "name": "Dos Naciones", "image_url": "https://s3-media4.fl.yelpcdn.com/bphoto/r99XznWZOJlPs2RazSXuGg/o.jpg", "is_closed": false, "url": "https://www.yelp.com/biz/dos-naciones-portland?adjust_creative=zwxV_le4sw48DviTKOGYUg&utm_campaign=yelp_api_v3&utm_medium=api_v3_business_search&utm_source=zwxV_le4sw48DviTKOGYUg", "review_count": 19, "categories": [{"alias": "salad", "title": "Salad"}, {"alias": "salvadoran", "title": "Salvadoran"}, {"alias": "mexican", "title": "Mexican"}], "rating": 4.0, "coordinates": {"latitude": 43.65342, "longitude": -70.26551}, "transactions": ["delivery"], "location": {"address1": "649 Congress St", "address2": null, "address3": null, "city": "Portland", "zip_code": "04101", "country": "US", "state": "ME", "display_address": ["649 Congress St", "Portland, ME 04101"]}, "phone": "", "display_phone": "", "distance": 2940.2809119343706}, {"id": "2FvIrikG6tkz6sDlw4Qz8g", "alias": "novare-res-bier-cafe-portland", "name": "Novare Res Bier Cafe", "image_url": "https://s3-media1.fl.yelpcdn.com/bphoto/r0rTfNbXzf4ixv8-seJ2xA/o.jpg", "is_closed": false, "url": "https://www.yelp.com/biz/novare-res-bier-cafe-portland?adjust_creative=zwxV_le4sw48DviTKOGYUg&utm_campaign=yelp_api_v3&utm_medium=api_v3_business_search&utm_source=zwxV_le4sw48DviTKOGYUg", "review_count": 569, "categories": [{"alias": "bars", "title": "Bars"}, {"alias": "beer_and_wine", "title": "Beer, Wine & Spirits"}], "rating": 4.5, "coordinates": {"latitude": 43.65715, "longitude": -70.254687}, "transactions": [], "price": "$$", "location": {"address1": "4 Canal Plz", "address2": "", "address3": "", "city": "Portland", "zip_code": "04101", "country": "US", "state": "ME", "display_address": ["4 Canal Plz", "Portland, ME 04101"]}, "phone": "+12077612437", "display_phone": "(207) 761-2437", "distance": 3874.6437629615225}, {"id": "wXNqQquMCgyJG-ycCrXjxA", "alias": "maiz-colombian-street-food-forest-ave-portland-4", "name": "Maiz Colombian Street Food - Forest Ave", "image_url": "https://s3-media1.fl.yelpcdn.com/bphoto/DhJ_jnOJ40_wO_Zp4mENHQ/o.jpg", "is_closed": false, "url": "https://www.yelp.com/biz/maiz-colombian-street-food-forest-ave-portland-4?adjust_creative=zwxV_le4sw48DviTKOGYUg&utm_campaign=yelp_api_v3&utm_medium=api_v3_business_search&utm_source=zwxV_le4sw48DviTKOGYUg", "review_count": 102, "categories": [{"alias": "colombian", "title": "Colombian"}], "rating": 4.5, "coordinates": {"latitude": 43.6703, "longitude": -70.28307}, "transactions": ["delivery"], "location": {"address1": "621 Forest Ave", "address2": "", "address3": null, "city": "Portland", "zip_code": "04101", "country": "US", "state": "ME", "display_address": ["621 Forest Ave", "Portland, ME 04101"]}, "phone": "+12074002881", "display_phone": "(207) 400-2881", "distance": 3976.3008094791867}, {"id": "rjv9AIssgp7Hez_5a4N8og", "alias": "quiero-cafe-saco-saco-2", "name": "Quiero Cafe - Saco", "image_url": "https://s3-media2.fl.yelpcdn.com/bphoto/_bjR1J4o5262_wLYmRFCFQ/o.jpg", "is_closed": false, "url": "https://www.yelp.com/biz/quiero-cafe-saco-saco-2?adjust_creative=zwxV_le4sw48DviTKOGYUg&utm_campaign=yelp_api_v3&utm_medium=api_v3_business_search&utm_source=zwxV_le4sw48DviTKOGYUg", "review_count": 127, "categories": [{"alias": "juicebars", "title": "Juice Bars & Smoothies"}, {"alias": "latin", "title": "Latin American"}, {"alias": "gluten_free", "title": "Gluten-Free"}], "rating": 4.5, "coordinates": {"latitude": 43.49664, "longitude": -70.44649}, "transactions": ["pickup", "delivery"], "price": "$$", "location": {"address1": "8 Pepperell Square", "address2": "", "address3": null, "city": "Saco", "zip_code": "04072", "country": "US", "state": "ME", "display_address": ["8 Pepperell Square", "Saco, ME 04072"]}, "phone": "+12074947267", "display_phone": "(207) 494-7267", "distance": 19792.41228255324}, {"id": "-h-qnVu813WSUau9b5aRng", "alias": "tu-casa-salvadorena-restaurant-portland", "name": "Tu Casa Salvadorena Restaurant", "image_url": "https://s3-media2.fl.yelpcdn.com/bphoto/PkLo_BhqxZfWqgm80uisWA/o.jpg", "is_closed": false, "url": "https://www.yelp.com/biz/tu-casa-salvadorena-restaurant-portland?adjust_creative=zwxV_le4sw48DviTKOGYUg&utm_campaign=yelp_api_v3&utm_medium=api_v3_business_search&utm_source=zwxV_le4sw48DviTKOGYUg", "review_count": 91, "categories": [{"alias": "mexican", "title": "Mexican"}, {"alias": "latin", "title": "Latin American"}], "rating": 4.0, "coordinates": {"latitude": 43.665542, "longitude": -70.252494}, "transactions": ["delivery"], "price": "$", "location": {"address1": "70 Washington Ave", "address2": "", "address3": "", "city": "Portland", "zip_code": "04101", "country": "US", "state": "ME", "display_address": ["70 Washington Ave", "Portland, ME 04101"]}, "phone": "+12078284971", "display_phone": "(207) 828-4971", "distance": 4644.768415340728}, {"id": "S6AoXa--Rfga63V7si3h6Q", "alias": "jeffe-juans-portland", "name": "Jeffe Juan's", "image_url": "https://s3-media2.fl.yelpcdn.com/bphoto/rhu53s9K35Ivb5pq7Mp4YA/o.jpg", "is_closed": false, "url": "https://www.yelp.com/biz/jeffe-juans-portland?adjust_creative=zwxV_le4sw48DviTKOGYUg&utm_campaign=yelp_api_v3&utm_medium=api_v3_business_search&utm_source=zwxV_le4sw48DviTKOGYUg", "review_count": 2, "categories": [{"alias": "bars", "title": "Bars"}, {"alias": "mexican", "title": "Mexican"}], "rating": 3.5, "coordinates": {"latitude": 43.6555826, "longitude": -70.2546587}, "transactions": [], "location": {"address1": "47 Wharf St", "address2": "", "address3": null, "city": "Portland", "zip_code": "04101", "country": "US", "state": "ME", "display_address": ["47 Wharf St", "Portland, ME 04101"]}, "phone": "", "display_phone": "", "distance": 3786.7336342224585}, {"id": "mSaTUVWh_TmGgdbdvVkwRg", "alias": "catra-mex-saco", "name": "Catra Mex", "image_url": "https://s3-media1.fl.yelpcdn.com/bphoto/9f6FjPgfk-rWunvUyEE4sg/o.jpg", "is_closed": false, "url": "https://www.yelp.com/biz/catra-mex-saco?adjust_creative=zwxV_le4sw48DviTKOGYUg&utm_campaign=yelp_api_v3&utm_medium=api_v3_business_search&utm_source=zwxV_le4sw48DviTKOGYUg", "review_count": 12, "categories": [{"alias": "mexican", "title": "Mexican"}, {"alias": "seafood", "title": "Seafood"}, {"alias": "steak", "title": "Steakhouses"}], "rating": 4.0, "coordinates": {"latitude": 43.499318, "longitude": -70.449249}, "transactions": [], "location": {"address1": "27 Elm St", "address2": "", "address3": null, "city": "Saco", "zip_code": "04072", "country": "US", "state": "ME", "display_address": ["27 Elm St", "Saco, ME 04072"]}, "phone": "+12074947574", "display_phone": "(207) 494-7574", "distance": 19710.136003189342}, {"id": "GWKSvuvNHOoz1WfxTqwIMg", "alias": "central-provisions-portland", "name": "Central Provisions", "image_url": "https://s3-media2.fl.yelpcdn.com/bphoto/URVciX7a2eiETlOjP64D-Q/o.jpg", "is_closed": false, "url": "https://www.yelp.com/biz/central-provisions-portland?adjust_creative=zwxV_le4sw48DviTKOGYUg&utm_campaign=yelp_api_v3&utm_medium=api_v3_business_search&utm_source=zwxV_le4sw48DviTKOGYUg", "review_count": 1243, "categories": [{"alias": "tapasmallplates", "title": "Tapas/Small Plates"}, {"alias": "cocktailbars", "title": "Cocktail Bars"}], "rating": 4.5, "coordinates": {"latitude": 43.656028, "longitude": -70.253784}, "transactions": ["delivery"], "price": "$$$", "location": {"address1": "414 Fore St", "address2": "", "address3": "", "city": "Portland", "zip_code": "04101", "country": "US", "state": "ME", "display_address": ["414 Fore St", "Portland, ME 04101"]}, "phone": "+12078051085", "display_phone": "(207) 805-1085", "distance": 3854.27178605723}, {"id": "EVGkegIGDO91k2q7WHadxQ", "alias": "isa-bistro-portland", "name": "Isa Bistro", "image_url": "https://s3-media4.fl.yelpcdn.com/bphoto/xGJ45epSD1rmlOGvEFqMXQ/o.jpg", "is_closed": false, "url": "https://www.yelp.com/biz/isa-bistro-portland?adjust_creative=zwxV_le4sw48DviTKOGYUg&utm_campaign=yelp_api_v3&utm_medium=api_v3_business_search&utm_source=zwxV_le4sw48DviTKOGYUg", "review_count": 279, "categories": [{"alias": "newamerican", "title": "American (New)"}, {"alias": "newmexican", "title": "New Mexican Cuisine"}], "rating": 4.5, "coordinates": {"latitude": 43.6580973363855, "longitude": -70.2649379650297}, "transactions": ["delivery"], "price": "$$", "location": {"address1": "79 Portland St", "address2": "", "address3": "", "city": "Portland", "zip_code": "04101", "country": "US", "state": "ME", "display_address": ["79 Portland St", "Portland, ME 04101"]}, "phone": "+12078088533", "display_phone": "(207) 808-8533", "distance": 3358.985036466372}, {"id": "aT5oPS85e2mahA0GjcSKAw", "alias": "chipotle-mexican-grill-portland-13", "name": "Chipotle Mexican Grill", "image_url": "https://s3-media2.fl.yelpcdn.com/bphoto/SY-lDw2uJ82jqD1liu96yQ/o.jpg", "is_closed": false, "url": "https://www.yelp.com/biz/chipotle-mexican-grill-portland-13?adjust_creative=zwxV_le4sw48DviTKOGYUg&utm_campaign=yelp_api_v3&utm_medium=api_v3_business_search&utm_source=zwxV_le4sw48DviTKOGYUg", "review_count": 71, "categories": [{"alias": "mexican", "title": "Mexican"}, {"alias": "hotdogs", "title": "Fast Food"}], "rating": 2.0, "coordinates": {"latitude": 43.660568, "longitude": -70.266672}, "transactions": ["pickup", "delivery"], "price": "$", "location": {"address1": "195 Kennebec St", "address2": "", "address3": "", "city": "Portland", "zip_code": "04101", "country": "US", "state": "ME", "display_address": ["195 Kennebec St", "Portland, ME 04101"]}, "phone": "+12077619711", "display_phone": "(207) 761-9711", "distance": 3490.155282646717}, {"id": "0e2ThozXjUKll8k2FAlNsg", "alias": "el-coraz\u00f3n-foodtruck-portland-3", "name": "El Coraz\u00f3n Foodtruck", "image_url": "https://s3-media2.fl.yelpcdn.com/bphoto/K6-cqzX4cxM2EOQH-JueVQ/o.jpg", "is_closed": false, "url": "https://www.yelp.com/biz/el-coraz%C3%B3n-foodtruck-portland-3?adjust_creative=zwxV_le4sw48DviTKOGYUg&utm_campaign=yelp_api_v3&utm_medium=api_v3_business_search&utm_source=zwxV_le4sw48DviTKOGYUg", "review_count": 52, "categories": [{"alias": "foodtrucks", "title": "Food Trucks"}, {"alias": "hotdog", "title": "Hot Dogs"}, {"alias": "mexican", "title": "Mexican"}], "rating": 4.0, "coordinates": {"latitude": 43.6570358276367, "longitude": -70.2597198486328}, "transactions": [], "price": "$", "location": {"address1": "", "address2": "", "address3": "", "city": "Portland", "zip_code": "04101", "country": "US", "state": "ME", "display_address": ["Portland, ME 04101"]}, "phone": "+12072004801", "display_phone": "(207) 200-4801", "distance": 4196.1287832203225}, {"id": "EkGhK9Xp7wF4OZ3sXjGakA", "alias": "fajita-grill-westbrook", "name": "Fajita Grill", "image_url": "https://s3-media4.fl.yelpcdn.com/bphoto/dkO_FENamFCKufp0dQqzhQ/o.jpg", "is_closed": false, "url": "https://www.yelp.com/biz/fajita-grill-westbrook?adjust_creative=zwxV_le4sw48DviTKOGYUg&utm_campaign=yelp_api_v3&utm_medium=api_v3_business_search&utm_source=zwxV_le4sw48DviTKOGYUg", "review_count": 106, "categories": [{"alias": "mexican", "title": "Mexican"}], "rating": 3.5, "coordinates": {"latitude": 43.6767308413982, "longitude": -70.3664211183786}, "transactions": [], "price": "$$", "location": {"address1": "857 Main St", "address2": "", "address3": "", "city": "Westbrook", "zip_code": "04092", "country": "US", "state": "ME", "display_address": ["857 Main St", "Westbrook, ME 04092"]}, "phone": "+12075918150", "display_phone": "(207) 591-8150", "distance": 7591.385555510346}, {"id": "MtCuJBz3K7e4iP-lU-Q6Pg", "alias": "sublime-taco-biddeford", "name": "Sublime Taco", "image_url": "https://s3-media3.fl.yelpcdn.com/bphoto/ypERIGchWqz6E_IfVzQ2Bg/o.jpg", "is_closed": false, "url": "https://www.yelp.com/biz/sublime-taco-biddeford?adjust_creative=zwxV_le4sw48DviTKOGYUg&utm_campaign=yelp_api_v3&utm_medium=api_v3_business_search&utm_source=zwxV_le4sw48DviTKOGYUg", "review_count": 55, "categories": [{"alias": "mexican", "title": "Mexican"}], "rating": 4.0, "coordinates": {"latitude": 43.49299, "longitude": -70.45545}, "transactions": ["delivery"], "location": {"address1": "12 Washington St", "address2": "", "address3": null, "city": "Biddeford", "zip_code": "04005", "country": "US", "state": "ME", "display_address": ["12 Washington St", "Biddeford, ME 04005"]}, "phone": "+12076026619", "display_phone": "(207) 602-6619", "distance": 20741.695062097406}, {"id": "FC5nwlaQiJzCjGXSvo3moA", "alias": "patron-restaurant-old-orchard-beach", "name": "Patron Restaurant", "image_url": "https://s3-media1.fl.yelpcdn.com/bphoto/bHEUrQSbfJC0zJE4VnpFow/o.jpg", "is_closed": false, "url": "https://www.yelp.com/biz/patron-restaurant-old-orchard-beach?adjust_creative=zwxV_le4sw48DviTKOGYUg&utm_campaign=yelp_api_v3&utm_medium=api_v3_business_search&utm_source=zwxV_le4sw48DviTKOGYUg", "review_count": 2, "categories": [{"alias": "mexican", "title": "Mexican"}, {"alias": "honduran", "title": "Honduran"}, {"alias": "bars", "title": "Bars"}], "rating": 5.0, "coordinates": {"latitude": 43.514838902926, "longitude": -70.3785522}, "transactions": [], "location": {"address1": "8 Heath St", "address2": "", "address3": null, "city": "Old Orchard Beach", "zip_code": "04064", "country": "US", "state": "ME", "display_address": ["8 Heath St", "Old Orchard Beach, ME 04064"]}, "phone": "+12079372400", "display_phone": "(207) 937-2400", "distance": 15078.285924359903}, {"id": "FbEwqAhZwyUoezLdZgGz-A", "alias": "tortilla-sunrise-old-orchard-beach", "name": "Tortilla Sunrise", "image_url": "https://s3-media3.fl.yelpcdn.com/bphoto/i7MELT6IvHusXGLR6u9NBQ/o.jpg", "is_closed": false, "url": "https://www.yelp.com/biz/tortilla-sunrise-old-orchard-beach?adjust_creative=zwxV_le4sw48DviTKOGYUg&utm_campaign=yelp_api_v3&utm_medium=api_v3_business_search&utm_source=zwxV_le4sw48DviTKOGYUg", "review_count": 4, "categories": [{"alias": "mexican", "title": "Mexican"}], "rating": 5.0, "coordinates": {"latitude": 43.5155395, "longitude": -70.3742371}, "transactions": [], "location": {"address1": "1 Old Orchard St", "address2": "", "address3": "Palace Playland", "city": "Old Orchard Beach", "zip_code": "04064", "country": "US", "state": "ME", "display_address": ["1 Old Orchard St", "Palace Playland", "Old Orchard Beach, ME 04064"]}, "phone": "", "display_phone": "", "distance": 14850.782063434699}, {"id": "XbCWt7qp33haD0F26bgdaw", "alias": "amigos-mexican-restaurant-portland", "name": "Amigos Mexican Restaurant", "image_url": "https://s3-media2.fl.yelpcdn.com/bphoto/pq71qvW1AvpYCbfW2zrizA/o.jpg", "is_closed": false, "url": "https://www.yelp.com/biz/amigos-mexican-restaurant-portland?adjust_creative=zwxV_le4sw48DviTKOGYUg&utm_campaign=yelp_api_v3&utm_medium=api_v3_business_search&utm_source=zwxV_le4sw48DviTKOGYUg", "review_count": 86, "categories": [{"alias": "mexican", "title": "Mexican"}, {"alias": "divebars", "title": "Dive Bars"}], "rating": 3.0, "coordinates": {"latitude": 43.65599, "longitude": -70.25345}, "transactions": [], "price": "$", "location": {"address1": "9 Dana St", "address2": "", "address3": "", "city": "Portland", "zip_code": "04101", "country": "US", "state": "ME", "display_address": ["9 Dana St", "Portland, ME 04101"]}, "phone": "+12077720772", "display_phone": "(207) 772-0772", "distance": 3881.1732598041926}, {"id": "vfO0pOFapnycmKVC-cHgMg", "alias": "paloma-s-restaurant-old-orchard-beach", "name": "Paloma\u2019s Restaurant", "image_url": "https://s3-media4.fl.yelpcdn.com/bphoto/NxT4HECdLvj2i39cGPTtIQ/o.jpg", "is_closed": false, "url": "https://www.yelp.com/biz/paloma-s-restaurant-old-orchard-beach?adjust_creative=zwxV_le4sw48DviTKOGYUg&utm_campaign=yelp_api_v3&utm_medium=api_v3_business_search&utm_source=zwxV_le4sw48DviTKOGYUg", "review_count": 21, "categories": [{"alias": "latin", "title": "Latin American"}, {"alias": "newamerican", "title": "American (New)"}, {"alias": "breakfast_brunch", "title": "Breakfast & Brunch"}], "rating": 4.5, "coordinates": {"latitude": 43.51744394782553, "longitude": -70.37251760225523}, "transactions": [], "location": {"address1": "15 B E Grand Ave", "address2": null, "address3": "", "city": "Old Orchard Beach", "zip_code": "04064", "country": "US", "state": "ME", "display_address": ["15 B E Grand Ave", "Old Orchard Beach, ME 04064"]}, "phone": "+12077303789", "display_phone": "(207) 730-3789", "distance": 14599.429912184825}, {"id": "0scKbuiPcZ6izT0JAcl1sQ", "alias": "tequila-frogs-old-orchard-beach", "name": "Tequila Frogs", "image_url": "https://s3-media1.fl.yelpcdn.com/bphoto/Od3t09pSpaKLgPEwbjsjSQ/o.jpg", "is_closed": false, "url": "https://www.yelp.com/biz/tequila-frogs-old-orchard-beach?adjust_creative=zwxV_le4sw48DviTKOGYUg&utm_campaign=yelp_api_v3&utm_medium=api_v3_business_search&utm_source=zwxV_le4sw48DviTKOGYUg", "review_count": 113, "categories": [{"alias": "mexican", "title": "Mexican"}], "rating": 2.0, "coordinates": {"latitude": 43.516521, "longitude": -70.374001}, "transactions": ["delivery"], "price": "$$", "location": {"address1": "8 E Grand Ave", "address2": "", "address3": "", "city": "Old Orchard Beach", "zip_code": "04064", "country": "US", "state": "ME", "display_address": ["8 E Grand Ave", "Old Orchard Beach, ME 04064"]}, "phone": "+12079343000", "display_phone": "(207) 934-3000", "distance": 14744.676917302253}, {"id": "1_wzQua5IDqqBjN1OLqirQ", "alias": "daily-greens-portland", "name": "Daily Greens", "image_url": "https://s3-media4.fl.yelpcdn.com/bphoto/5GZMCdzIx1Ggan5n99Nb0A/o.jpg", "is_closed": false, "url": "https://www.yelp.com/biz/daily-greens-portland?adjust_creative=zwxV_le4sw48DviTKOGYUg&utm_campaign=yelp_api_v3&utm_medium=api_v3_business_search&utm_source=zwxV_le4sw48DviTKOGYUg", "review_count": 37, "categories": [{"alias": "salad", "title": "Salad"}], "rating": 4.0, "coordinates": {"latitude": 43.657135, "longitude": -70.2586594}, "transactions": ["delivery"], "price": "$$", "location": {"address1": "28 Monument Sq", "address2": "", "address3": "", "city": "Portland", "zip_code": "04101", "country": "US", "state": "ME", "display_address": ["28 Monument Sq", "Portland, ME 04101"]}, "phone": "+12077474920", "display_phone": "(207) 747-4920", "distance": 3593.5609087329053}, {"id": "e87pfRcCANJ5HLd8KwByvA", "alias": "hot-suppa-portland", "name": "Hot Suppa", "image_url": "https://s3-media1.fl.yelpcdn.com/bphoto/_R-JklRiilRTSdXdIn7F1w/o.jpg", "is_closed": false, "url": "https://www.yelp.com/biz/hot-suppa-portland?adjust_creative=zwxV_le4sw48DviTKOGYUg&utm_campaign=yelp_api_v3&utm_medium=api_v3_business_search&utm_source=zwxV_le4sw48DviTKOGYUg", "review_count": 1083, "categories": [{"alias": "breakfast_brunch", "title": "Breakfast & Brunch"}, {"alias": "tradamerican", "title": "American (Traditional)"}, {"alias": "comfortfood", "title": "Comfort Food"}], "rating": 4.5, "coordinates": {"latitude": 43.65304492414, "longitude": -70.2684836089611}, "transactions": ["delivery"], "price": "$$", "location": {"address1": "703 Congress St", "address2": "", "address3": "", "city": "Portland", "zip_code": "04102", "country": "US", "state": "ME", "display_address": ["703 Congress St", "Portland, ME 04102"]}, "phone": "+12078715005", "display_phone": "(207) 871-5005", "distance": 2763.360528087772}, {"id": "3HocNabPJCD42qWFDFQk8w", "alias": "the-north-point-portland", "name": "The North Point", "image_url": "https://s3-media2.fl.yelpcdn.com/bphoto/brmnMog315jWN6bzqopMOg/o.jpg", "is_closed": false, "url": "https://www.yelp.com/biz/the-north-point-portland?adjust_creative=zwxV_le4sw48DviTKOGYUg&utm_campaign=yelp_api_v3&utm_medium=api_v3_business_search&utm_source=zwxV_le4sw48DviTKOGYUg", "review_count": 281, "categories": [{"alias": "lounges", "title": "Lounges"}, {"alias": "tradamerican", "title": "American (Traditional)"}], "rating": 4.5, "coordinates": {"latitude": 43.6574068778384, "longitude": -70.2527466382673}, "transactions": ["delivery"], "price": "$$", "location": {"address1": "35 Silver St", "address2": "", "address3": "", "city": "Portland", "zip_code": "04101", "country": "US", "state": "ME", "display_address": ["35 Silver St", "Portland, ME 04101"]}, "phone": "+12078993778", "display_phone": "(207) 899-3778", "distance": 4014.158658612255}, {"id": "6Tmh0qexaRS0vbwwbTHBPg", "alias": "tic-taco-portland", "name": "Tic Taco", "image_url": "https://s3-media3.fl.yelpcdn.com/bphoto/Umoq5m3BhF_2v2iUrZle8Q/o.jpg", "is_closed": false, "url": "https://www.yelp.com/biz/tic-taco-portland?adjust_creative=zwxV_le4sw48DviTKOGYUg&utm_campaign=yelp_api_v3&utm_medium=api_v3_business_search&utm_source=zwxV_le4sw48DviTKOGYUg", "review_count": 12, "categories": [{"alias": "mexican", "title": "Mexican"}], "rating": 4.0, "coordinates": {"latitude": 43.6574859619141, "longitude": -70.2573547363281}, "transactions": [], "price": "$", "location": {"address1": "1 City Ctr", "address2": "", "address3": "", "city": "Portland", "zip_code": "04101", "country": "US", "state": "ME", "display_address": ["1 City Ctr", "Portland, ME 04101"]}, "phone": "+12077738226", "display_phone": "(207) 773-8226", "distance": 3743.533703081577}, {"id": "V-ILpEGNRX3tf-N4qZxPCA", "alias": "butcher-burger-portland", "name": "Butcher Burger", "image_url": "https://s3-media1.fl.yelpcdn.com/bphoto/RUqYZXtmQaAUwXKzHBvJCw/o.jpg", "is_closed": false, "url": "https://www.yelp.com/biz/butcher-burger-portland?adjust_creative=zwxV_le4sw48DviTKOGYUg&utm_campaign=yelp_api_v3&utm_medium=api_v3_business_search&utm_source=zwxV_le4sw48DviTKOGYUg", "review_count": 99, "categories": [{"alias": "burgers", "title": "Burgers"}, {"alias": "sandwiches", "title": "Sandwiches"}, {"alias": "tacos", "title": "Tacos"}], "rating": 4.5, "coordinates": {"latitude": 43.65537335634099, "longitude": -70.25465733143616}, "transactions": [], "location": {"address1": "7 Union St", "address2": "", "address3": null, "city": "Portland", "zip_code": "04101", "country": "US", "state": "ME", "display_address": ["7 Union St", "Portland, ME 04101"]}, "phone": "+12078088522", "display_phone": "(207) 808-8522", "distance": 3754.3124978500846}, {"id": "tts2s765CJCSyOy4qcDQLw", "alias": "brookside-food-and-drink-westbrook", "name": "Brookside Food And Drink", "image_url": "https://s3-media4.fl.yelpcdn.com/bphoto/9TcCcUx1w8L2Q-mzuy_mvQ/o.jpg", "is_closed": false, "url": "https://www.yelp.com/biz/brookside-food-and-drink-westbrook?adjust_creative=zwxV_le4sw48DviTKOGYUg&utm_campaign=yelp_api_v3&utm_medium=api_v3_business_search&utm_source=zwxV_le4sw48DviTKOGYUg", "review_count": 8, "categories": [{"alias": "salad", "title": "Salad"}, {"alias": "mexican", "title": "Mexican"}, {"alias": "sandwiches", "title": "Sandwiches"}], "rating": 5.0, "coordinates": {"latitude": 43.70696875635407, "longitude": -70.32731417512376}, "transactions": [], "location": {"address1": "125 Bridgton Rd", "address2": "", "address3": null, "city": "Westbrook", "zip_code": "04092", "country": "US", "state": "ME", "display_address": ["125 Bridgton Rd", "Westbrook, ME 04092"]}, "phone": "", "display_phone": "", "distance": 8490.655075507326}, {"id": "L76QknW3NI8KmIXvTq8XBA", "alias": "the-great-lost-bear-portland", "name": "The Great Lost Bear", "image_url": "https://s3-media2.fl.yelpcdn.com/bphoto/P8M_fdcv9V47jmMQT5gtZA/o.jpg", "is_closed": false, "url": "https://www.yelp.com/biz/the-great-lost-bear-portland?adjust_creative=zwxV_le4sw48DviTKOGYUg&utm_campaign=yelp_api_v3&utm_medium=api_v3_business_search&utm_source=zwxV_le4sw48DviTKOGYUg", "review_count": 651, "categories": [{"alias": "tradamerican", "title": "American (Traditional)"}, {"alias": "beerbar", "title": "Beer Bar"}, {"alias": "desserts", "title": "Desserts"}], "rating": 4.0, "coordinates": {"latitude": 43.6680599, "longitude": -70.2802899}, "transactions": ["delivery"], "price": "$$", "location": {"address1": "540 Forest Ave", "address2": "", "address3": "", "city": "Portland", "zip_code": "04101", "country": "US", "state": "ME", "display_address": ["540 Forest Ave", "Portland, ME 04101"]}, "phone": "+12077720300", "display_phone": "(207) 772-0300", "distance": 3786.9128426918137}, {"id": "8D39iKzQXQqDofh0Xx9dxQ", "alias": "the-thirsty-pig-portland", "name": "The Thirsty Pig", "image_url": "https://s3-media4.fl.yelpcdn.com/bphoto/LZMLBd8uMVngp1srGnsLlA/o.jpg", "is_closed": false, "url": "https://www.yelp.com/biz/the-thirsty-pig-portland?adjust_creative=zwxV_le4sw48DviTKOGYUg&utm_campaign=yelp_api_v3&utm_medium=api_v3_business_search&utm_source=zwxV_le4sw48DviTKOGYUg", "review_count": 447, "categories": [{"alias": "beer_and_wine", "title": "Beer, Wine & Spirits"}, {"alias": "tradamerican", "title": "American (Traditional)"}, {"alias": "bars", "title": "Bars"}], "rating": 4.0, "coordinates": {"latitude": 43.657146, "longitude": -70.2540318}, "transactions": ["delivery"], "price": "$$", "location": {"address1": "37 Exchange St", "address2": "", "address3": "", "city": "Portland", "zip_code": "04101", "country": "US", "state": "ME", "display_address": ["37 Exchange St", "Portland, ME 04101"]}, "phone": "+12077732469", "display_phone": "(207) 773-2469", "distance": 3915.248365706511}, {"id": "SPMYmU9pBIGiApqzDJtkKQ", "alias": "regards-portland", "name": "Regards", "image_url": "https://s3-media2.fl.yelpcdn.com/bphoto/LMaOnO05depz4RbJDZN8Bw/o.jpg", "is_closed": false, "url": "https://www.yelp.com/biz/regards-portland?adjust_creative=zwxV_le4sw48DviTKOGYUg&utm_campaign=yelp_api_v3&utm_medium=api_v3_business_search&utm_source=zwxV_le4sw48DviTKOGYUg", "review_count": 44, "categories": [{"alias": "cocktailbars", "title": "Cocktail Bars"}, {"alias": "newamerican", "title": "American (New)"}, {"alias": "seafood", "title": "Seafood"}], "rating": 4.0, "coordinates": {"latitude": 43.65561, "longitude": -70.2618}, "transactions": ["delivery"], "location": {"address1": "547 Congress St", "address2": "", "address3": null, "city": "Portland", "zip_code": "04101", "country": "US", "state": "ME", "display_address": ["547 Congress St", "Portland, ME 04101"]}, "phone": "+12077475940", "display_phone": "(207) 747-5940", "distance": 3332.2129574285786}, {"id": "RDelij78UuyYwMZ9tnihxA", "alias": "los-amigos-portland", "name": "Los Amigos", "image_url": "", "is_closed": false, "url": "https://www.yelp.com/biz/los-amigos-portland?adjust_creative=zwxV_le4sw48DviTKOGYUg&utm_campaign=yelp_api_v3&utm_medium=api_v3_business_search&utm_source=zwxV_le4sw48DviTKOGYUg", "review_count": 1, "categories": [{"alias": "mexican", "title": "Mexican"}], "rating": 1.0, "coordinates": {"latitude": 43.6531, "longitude": -70.26562}, "transactions": [], "location": {"address1": "656 Congress St", "address2": null, "address3": null, "city": "Portland", "zip_code": "04101", "country": "US", "state": "ME", "display_address": ["656 Congress St", "Portland, ME 04101"]}, "phone": "+12074005059", "display_phone": "(207) 400-5059", "distance": 2918.9247036341644}, {"id": "7k_zkBLB2AGcq3ueSrz1AA", "alias": "po-boys-and-pickles-portland-2", "name": "Po' Boys & Pickles", "image_url": "https://s3-media1.fl.yelpcdn.com/bphoto/F34m32t3pH_1maqCjexZGw/o.jpg", "is_closed": false, "url": "https://www.yelp.com/biz/po-boys-and-pickles-portland-2?adjust_creative=zwxV_le4sw48DviTKOGYUg&utm_campaign=yelp_api_v3&utm_medium=api_v3_business_search&utm_source=zwxV_le4sw48DviTKOGYUg", "review_count": 364, "categories": [{"alias": "sandwiches", "title": "Sandwiches"}, {"alias": "cajun", "title": "Cajun/Creole"}, {"alias": "seafood", "title": "Seafood"}], "rating": 4.0, "coordinates": {"latitude": 43.68568, "longitude": -70.29243}, "transactions": ["delivery"], "price": "$$", "location": {"address1": "1124 Forest Ave", "address2": "", "address3": "", "city": "Portland", "zip_code": "04103", "country": "US", "state": "ME", "display_address": ["1124 Forest Ave", "Portland, ME 04103"]}, "phone": "+12075189735", "display_phone": "(207) 518-9735", "distance": 5631.954706092675}, {"id": "YIZHbnnY8TMp7P1RPE8uaw", "alias": "local-188-portland-3", "name": "Local 188", "image_url": "https://s3-media4.fl.yelpcdn.com/bphoto/o2ZYPyXP2rtah0_JntsGEw/o.jpg", "is_closed": false, "url": "https://www.yelp.com/biz/local-188-portland-3?adjust_creative=zwxV_le4sw48DviTKOGYUg&utm_campaign=yelp_api_v3&utm_medium=api_v3_business_search&utm_source=zwxV_le4sw48DviTKOGYUg", "review_count": 558, "categories": [{"alias": "spanish", "title": "Spanish"}, {"alias": "bars", "title": "Bars"}, {"alias": "mediterranean", "title": "Mediterranean"}], "rating": 4.0, "coordinates": {"latitude": 43.65348, "longitude": -70.26738}, "transactions": ["delivery"], "price": "$$", "location": {"address1": "685 Congress St", "address2": null, "address3": "", "city": "Portland", "zip_code": "04102", "country": "US", "state": "ME", "display_address": ["685 Congress St", "Portland, ME 04102"]}, "phone": "+12077617909", "display_phone": "(207) 761-7909", "distance": 2824.2489407367584}, {"id": "PNzz28UtAqQuCbTKy2dACw", "alias": "flores-restaurant-portland-3", "name": "Flores Restaurant", "image_url": "https://s3-media3.fl.yelpcdn.com/bphoto/Pg2Mj71O8otlgQllLDnKxQ/o.jpg", "is_closed": false, "url": "https://www.yelp.com/biz/flores-restaurant-portland-3?adjust_creative=zwxV_le4sw48DviTKOGYUg&utm_campaign=yelp_api_v3&utm_medium=api_v3_business_search&utm_source=zwxV_le4sw48DviTKOGYUg", "review_count": 6, "categories": [{"alias": "salvadoran", "title": "Salvadoran"}, {"alias": "bars", "title": "Bars"}], "rating": 4.0, "coordinates": {"latitude": 43.6582625, "longitude": -70.258528}, "transactions": ["delivery", "pickup"], "location": {"address1": "437 Congress St", "address2": "", "address3": null, "city": "Portland", "zip_code": "04102", "country": "US", "state": "ME", "display_address": ["437 Congress St", "Portland, ME 04102"]}, "phone": "+12078051698", "display_phone": "(207) 805-1698", "distance": 3725.73894681816}, {"id": "XbigQ4j_KrSa7IFEJRwdBQ", "alias": "chilis-s-portland", "name": "Chili's", "image_url": "https://s3-media4.fl.yelpcdn.com/bphoto/jZC_mTH316UVHEJ8jhVZEw/o.jpg", "is_closed": false, "url": "https://www.yelp.com/biz/chilis-s-portland?adjust_creative=zwxV_le4sw48DviTKOGYUg&utm_campaign=yelp_api_v3&utm_medium=api_v3_business_search&utm_source=zwxV_le4sw48DviTKOGYUg", "review_count": 76, "categories": [{"alias": "bars", "title": "Bars"}, {"alias": "tex-mex", "title": "Tex-Mex"}, {"alias": "tradamerican", "title": "American (Traditional)"}], "rating": 3.0, "coordinates": {"latitude": 43.63182, "longitude": -70.34076}, "transactions": ["delivery", "pickup"], "price": "$$", "location": {"address1": "465 Maine Mall Rd", "address2": "", "address3": "", "city": "S Portland", "zip_code": "04106", "country": "US", "state": "ME", "display_address": ["465 Maine Mall Rd", "S Portland, ME 04106"]}, "phone": "+12077731595", "display_phone": "(207) 773-1595", "distance": 3946.526322249044}, {"id": "ywuRgxFzG5tZab7m6joIEw", "alias": "the-shack-old-orchard-beach-2", "name": "The Shack", "image_url": "https://s3-media1.fl.yelpcdn.com/bphoto/iWmdGBjY2b8xzaj05mNtSg/o.jpg", "is_closed": false, "url": "https://www.yelp.com/biz/the-shack-old-orchard-beach-2?adjust_creative=zwxV_le4sw48DviTKOGYUg&utm_campaign=yelp_api_v3&utm_medium=api_v3_business_search&utm_source=zwxV_le4sw48DviTKOGYUg", "review_count": 263, "categories": [{"alias": "seafood", "title": "Seafood"}, {"alias": "tradamerican", "title": "American (Traditional)"}], "rating": 4.0, "coordinates": {"latitude": 43.51380198534659, "longitude": -70.37577163428068}, "transactions": ["delivery"], "price": "$$", "location": {"address1": "27 W Grand Ave", "address2": "", "address3": "", "city": "Old Orchard Beach", "zip_code": "04064", "country": "US", "state": "ME", "display_address": ["27 W Grand Ave", "Old Orchard Beach, ME 04064"]}, "phone": "+12079378271", "display_phone": "(207) 937-8271", "distance": 15078.918622075578}, {"id": "wu2zsRF7WJmUOMU8B0agwQ", "alias": "the-kings-head-portland", "name": "The King's Head", "image_url": "https://s3-media2.fl.yelpcdn.com/bphoto/bUdFVFLgce7lNoIZaP9vuQ/o.jpg", "is_closed": false, "url": "https://www.yelp.com/biz/the-kings-head-portland?adjust_creative=zwxV_le4sw48DviTKOGYUg&utm_campaign=yelp_api_v3&utm_medium=api_v3_business_search&utm_source=zwxV_le4sw48DviTKOGYUg", "review_count": 184, "categories": [{"alias": "tradamerican", "title": "American (Traditional)"}, {"alias": "pubs", "title": "Pubs"}], "rating": 4.0, "coordinates": {"latitude": 43.6537867741814, "longitude": -70.2542762021607}, "transactions": ["delivery"], "price": "$$", "location": {"address1": "254 Commercial St", "address2": "", "address3": "Pierce Atwood Building", "city": "Portland", "zip_code": "04101", "country": "US", "state": "ME", "display_address": ["254 Commercial St", "Pierce Atwood Building", "Portland, ME 04101"]}, "phone": "+12078051252", "display_phone": "(207) 805-1252", "distance": 3676.005689353501}, {"id": "bsSOmUTtdP0AGNR4QUq8XA", "alias": "lazzari-portland", "name": "Lazzari", "image_url": "https://s3-media2.fl.yelpcdn.com/bphoto/-ykeNFbQMgclzH1gAjnfnQ/o.jpg", "is_closed": false, "url": "https://www.yelp.com/biz/lazzari-portland?adjust_creative=zwxV_le4sw48DviTKOGYUg&utm_campaign=yelp_api_v3&utm_medium=api_v3_business_search&utm_source=zwxV_le4sw48DviTKOGYUg", "review_count": 198, "categories": [{"alias": "bars", "title": "Bars"}, {"alias": "pizza", "title": "Pizza"}, {"alias": "italian", "title": "Italian"}], "rating": 4.0, "coordinates": {"latitude": 43.6535699950551, "longitude": -70.2637498453259}, "transactions": ["delivery"], "price": "$$", "location": {"address1": "618 Congress St", "address2": "", "address3": null, "city": "Portland", "zip_code": "04101", "country": "US", "state": "ME", "display_address": ["618 Congress St", "Portland, ME 04101"]}, "phone": "+12075360368", "display_phone": "(207) 536-0368", "distance": 3062.4489773632276}, {"id": "XuHShb4ZdGabX7c802KTFw", "alias": "portland-hunt-and-alpine-club-portland", "name": "Portland Hunt & Alpine Club", "image_url": "https://s3-media2.fl.yelpcdn.com/bphoto/SqULIhm_QgANcMWt3UA4UA/o.jpg", "is_closed": false, "url": "https://www.yelp.com/biz/portland-hunt-and-alpine-club-portland?adjust_creative=zwxV_le4sw48DviTKOGYUg&utm_campaign=yelp_api_v3&utm_medium=api_v3_business_search&utm_source=zwxV_le4sw48DviTKOGYUg", "review_count": 238, "categories": [{"alias": "cocktailbars", "title": "Cocktail Bars"}, {"alias": "gastropubs", "title": "Gastropubs"}], "rating": 4.0, "coordinates": {"latitude": 43.6581083045551, "longitude": -70.2544496580198}, "transactions": ["delivery"], "price": "$$", "location": {"address1": "75 Market St", "address2": "", "address3": "", "city": "Portland", "zip_code": "04101", "country": "US", "state": "ME", "display_address": ["75 Market St", "Portland, ME 04101"]}, "phone": "+12077474754", "display_phone": "(207) 747-4754", "distance": 3957.634863271987}, {"id": "-kEIVuVy3rXfvR9AGHC80Q", "alias": "sea-salt-lobster-saco-2", "name": "Sea Salt Lobster", "image_url": "https://s3-media1.fl.yelpcdn.com/bphoto/DM0pDEsJ2M2ry7vE-gzI8Q/o.jpg", "is_closed": false, "url": "https://www.yelp.com/biz/sea-salt-lobster-saco-2?adjust_creative=zwxV_le4sw48DviTKOGYUg&utm_campaign=yelp_api_v3&utm_medium=api_v3_business_search&utm_source=zwxV_le4sw48DviTKOGYUg", "review_count": 489, "categories": [{"alias": "seafood", "title": "Seafood"}, {"alias": "beer_and_wine", "title": "Beer, Wine & Spirits"}, {"alias": "sandwiches", "title": "Sandwiches"}], "rating": 4.0, "coordinates": {"latitude": 43.51619, "longitude": -70.42958}, "transactions": ["delivery"], "price": "$$", "location": {"address1": "660 Main St", "address2": null, "address3": "", "city": "Saco", "zip_code": "04072", "country": "US", "state": "ME", "display_address": ["660 Main St", "Saco, ME 04072"]}, "phone": "+12074941178", "display_phone": "(207) 494-1178", "distance": 17249.789814745418}, {"id": "CxrZ5WlKPV3pl4n8sgljaA", "alias": "st-joe-s-cafe-scarborough", "name": "St. Joe\u2019s Cafe", "image_url": "https://s3-media2.fl.yelpcdn.com/bphoto/RYuLy_uDXel4CJCZTniwkQ/o.jpg", "is_closed": false, "url": "https://www.yelp.com/biz/st-joe-s-cafe-scarborough?adjust_creative=zwxV_le4sw48DviTKOGYUg&utm_campaign=yelp_api_v3&utm_medium=api_v3_business_search&utm_source=zwxV_le4sw48DviTKOGYUg", "review_count": 245, "categories": [{"alias": "breakfast_brunch", "title": "Breakfast & Brunch"}, {"alias": "coffee", "title": "Coffee & Tea"}], "rating": 4.0, "coordinates": {"latitude": 43.6187687718113, "longitude": -70.346425866839}, "transactions": ["delivery"], "price": "$$", "location": {"address1": "220 Gorham Rd", "address2": "", "address3": "", "city": "Scarborough", "zip_code": "04074", "country": "US", "state": "ME", "display_address": ["220 Gorham Rd", "Scarborough, ME 04074"]}, "phone": "+12078838835", "display_phone": "(207) 883-8835", "distance": 4746.744304558006}, {"id": "rJsGrKPoRHcGadwy0F1lzA", "alias": "street-and-co-portland-2", "name": "Street & Co.", "image_url": "https://s3-media4.fl.yelpcdn.com/bphoto/slDfG1iJ7xweczETg81DDA/o.jpg", "is_closed": false, "url": "https://www.yelp.com/biz/street-and-co-portland-2?adjust_creative=zwxV_le4sw48DviTKOGYUg&utm_campaign=yelp_api_v3&utm_medium=api_v3_business_search&utm_source=zwxV_le4sw48DviTKOGYUg", "review_count": 1722, "categories": [{"alias": "seafood", "title": "Seafood"}, {"alias": "newamerican", "title": "American (New)"}, {"alias": "mediterranean", "title": "Mediterranean"}], "rating": 4.5, "coordinates": {"latitude": 43.6558679491282, "longitude": -70.2540271729231}, "transactions": ["delivery"], "price": "$$$", "location": {"address1": "33 Wharf St", "address2": null, "address3": "", "city": "Portland", "zip_code": "04101", "country": "US", "state": "ME", "display_address": ["33 Wharf St", "Portland, ME 04101"]}, "phone": "+12077750887", "display_phone": "(207) 775-0887", "distance": 3828.0455399531406}, {"id": "Wz1vLIYnStNYr9ZrXjQVdA", "alias": "marcys-diner-portland", "name": "Marcy's Diner", "image_url": "https://s3-media3.fl.yelpcdn.com/bphoto/DDIHZf0h4JKzUCi5uvPW7Q/o.jpg", "is_closed": false, "url": "https://www.yelp.com/biz/marcys-diner-portland?adjust_creative=zwxV_le4sw48DviTKOGYUg&utm_campaign=yelp_api_v3&utm_medium=api_v3_business_search&utm_source=zwxV_le4sw48DviTKOGYUg", "review_count": 623, "categories": [{"alias": "diners", "title": "Diners"}, {"alias": "tradamerican", "title": "American (Traditional)"}, {"alias": "breakfast_brunch", "title": "Breakfast & Brunch"}], "rating": 4.5, "coordinates": {"latitude": 43.6550091209133, "longitude": -70.2612915902348}, "transactions": ["delivery"], "price": "$$", "location": {"address1": "47 Oak St", "address2": "", "address3": "", "city": "Portland", "zip_code": "04101", "country": "US", "state": "ME", "display_address": ["47 Oak St", "Portland, ME 04101"]}, "phone": "+12077749713", "display_phone": "(207) 774-9713", "distance": 3316.45936949868}, {"id": "d4tcjIZ0uTnljYJkA7R8uw", "alias": "little-tap-house-portland", "name": "Little Tap House", "image_url": "https://s3-media1.fl.yelpcdn.com/bphoto/gLQPhrrL3TR8ipVwntt-JQ/o.jpg", "is_closed": false, "url": "https://www.yelp.com/biz/little-tap-house-portland?adjust_creative=zwxV_le4sw48DviTKOGYUg&utm_campaign=yelp_api_v3&utm_medium=api_v3_business_search&utm_source=zwxV_le4sw48DviTKOGYUg", "review_count": 357, "categories": [{"alias": "gastropubs", "title": "Gastropubs"}, {"alias": "newamerican", "title": "American (New)"}, {"alias": "breakfast_brunch", "title": "Breakfast & Brunch"}], "rating": 4.0, "coordinates": {"latitude": 43.65314, "longitude": -70.26227}, "transactions": ["delivery"], "price": "$$", "location": {"address1": "106 High St", "address2": "", "address3": "", "city": "Portland", "zip_code": "04101", "country": "US", "state": "ME", "display_address": ["106 High St", "Portland, ME 04101"]}, "phone": "+12076133140", "display_phone": "(207) 613-3140", "distance": 3129.4066175059256}, {"id": "9mhgelX3Wd54qGVaafp4rQ", "alias": "the-armory-lounge-portland", "name": "The Armory Lounge", "image_url": "https://s3-media2.fl.yelpcdn.com/bphoto/saN2ePu0_8LAYtzS12l84Q/o.jpg", "is_closed": false, "url": "https://www.yelp.com/biz/the-armory-lounge-portland?adjust_creative=zwxV_le4sw48DviTKOGYUg&utm_campaign=yelp_api_v3&utm_medium=api_v3_business_search&utm_source=zwxV_le4sw48DviTKOGYUg", "review_count": 69, "categories": [{"alias": "lounges", "title": "Lounges"}, {"alias": "newamerican", "title": "American (New)"}], "rating": 4.5, "coordinates": {"latitude": 43.657054901123, "longitude": -70.2527618408203}, "transactions": ["delivery"], "price": "$$", "location": {"address1": "20 Milk St", "address2": "", "address3": "", "city": "Portland", "zip_code": "04101", "country": "US", "state": "ME", "display_address": ["20 Milk St", "Portland, ME 04101"]}, "phone": "+12077744200", "display_phone": "(207) 774-4200", "distance": 3987.9760467418746}, {"id": "cV0QDyeE1nSj4QHuogwG_Q", "alias": "inkwell-portland", "name": "Inkwell", "image_url": "https://s3-media2.fl.yelpcdn.com/bphoto/F9kzdL6Ng5UTeXIUptag0w/o.jpg", "is_closed": false, "url": "https://www.yelp.com/biz/inkwell-portland?adjust_creative=zwxV_le4sw48DviTKOGYUg&utm_campaign=yelp_api_v3&utm_medium=api_v3_business_search&utm_source=zwxV_le4sw48DviTKOGYUg", "review_count": 19, "categories": [{"alias": "tapasmallplates", "title": "Tapas/Small Plates"}, {"alias": "cocktailbars", "title": "Cocktail Bars"}], "rating": 4.0, "coordinates": {"latitude": 43.65885, "longitude": -70.25607}, "transactions": ["delivery"], "price": "$$$", "location": {"address1": "119 Exchange St", "address2": "", "address3": "", "city": "Portland", "zip_code": "04101", "country": "US", "state": "ME", "display_address": ["119 Exchange St", "Portland, ME 04101"]}, "phone": "+12078088800", "display_phone": "(207) 808-8800", "distance": 3898.308497977604}, {"id": "C3B7pRmj8KCmQqVxU6xthQ", "alias": "tacos-n-tails-old-orchard-beach", "name": "Tacos 'N Tails", "image_url": "https://s3-media2.fl.yelpcdn.com/bphoto/z6SrmaSy9rO9GrB2ZBc0gA/o.jpg", "is_closed": false, "url": "https://www.yelp.com/biz/tacos-n-tails-old-orchard-beach?adjust_creative=zwxV_le4sw48DviTKOGYUg&utm_campaign=yelp_api_v3&utm_medium=api_v3_business_search&utm_source=zwxV_le4sw48DviTKOGYUg", "review_count": 1, "categories": [{"alias": "seafood", "title": "Seafood"}, {"alias": "tacos", "title": "Tacos"}, {"alias": "sandwiches", "title": "Sandwiches"}], "rating": 5.0, "coordinates": {"latitude": 43.51551029869433, "longitude": -70.37323661148547}, "transactions": ["delivery"], "location": {"address1": "2 Old Orchard St", "address2": "", "address3": null, "city": "Old Orchard Beach", "zip_code": "04064", "country": "US", "state": "ME", "display_address": ["2 Old Orchard St", "Old Orchard Beach, ME 04064"]}, "phone": "", "display_phone": "", "distance": 14817.873797736625}, {"id": "AEVPmm_ZOTUvFALo1X68pA", "alias": "dutchs-portland", "name": "Dutch's", "image_url": "https://s3-media3.fl.yelpcdn.com/bphoto/cDV1GOFm8KSmG4gKr6lgcQ/o.jpg", "is_closed": false, "url": "https://www.yelp.com/biz/dutchs-portland?adjust_creative=zwxV_le4sw48DviTKOGYUg&utm_campaign=yelp_api_v3&utm_medium=api_v3_business_search&utm_source=zwxV_le4sw48DviTKOGYUg", "review_count": 344, "categories": [{"alias": "breakfast_brunch", "title": "Breakfast & Brunch"}, {"alias": "sandwiches", "title": "Sandwiches"}], "rating": 4.5, "coordinates": {"latitude": 43.6578360021297, "longitude": -70.260703}, "transactions": ["delivery", "pickup"], "price": "$$", "location": {"address1": "28 Preble St", "address2": "", "address3": "", "city": "Portland", "zip_code": "04101", "country": "US", "state": "ME", "display_address": ["28 Preble St", "Portland, ME 04101"]}, "phone": "+12077612900", "display_phone": "(207) 761-2900", "distance": 3567.8045365843473}, {"id": "yS_a0_VrYufO9WVgXQpaiw", "alias": "artemisia-cafe-portland", "name": "Artemisia Cafe", "image_url": "https://s3-media4.fl.yelpcdn.com/bphoto/-yB8u8g6leemK_nELrGJaQ/o.jpg", "is_closed": false, "url": "https://www.yelp.com/biz/artemisia-cafe-portland?adjust_creative=zwxV_le4sw48DviTKOGYUg&utm_campaign=yelp_api_v3&utm_medium=api_v3_business_search&utm_source=zwxV_le4sw48DviTKOGYUg", "review_count": 198, "categories": [{"alias": "breakfast_brunch", "title": "Breakfast & Brunch"}, {"alias": "cafes", "title": "Cafes"}, {"alias": "burgers", "title": "Burgers"}], "rating": 4.5, "coordinates": {"latitude": 43.65393, "longitude": -70.25917}, "transactions": ["delivery"], "price": "$$", "location": {"address1": "61 Pleasant St", "address2": "", "address3": "", "city": "Portland", "zip_code": "04101", "country": "US", "state": "ME", "display_address": ["61 Pleasant St", "Portland, ME 04101"]}, "phone": "+12077610135", "display_phone": "(207) 761-0135", "distance": 3370.773645700309}, {"id": "5Lw_VTpvksN1RbRuEefNCQ", "alias": "magnus-on-water-biddeford-2", "name": "Magnus on Water", "image_url": "https://s3-media3.fl.yelpcdn.com/bphoto/HXyaZEjoFrXqOaAOXDE31A/o.jpg", "is_closed": false, "url": "https://www.yelp.com/biz/magnus-on-water-biddeford-2?adjust_creative=zwxV_le4sw48DviTKOGYUg&utm_campaign=yelp_api_v3&utm_medium=api_v3_business_search&utm_source=zwxV_le4sw48DviTKOGYUg", "review_count": 43, "categories": [{"alias": "cocktailbars", "title": "Cocktail Bars"}, {"alias": "newamerican", "title": "American (New)"}], "rating": 4.5, "coordinates": {"latitude": 43.4923, "longitude": -70.45026}, "transactions": [], "location": {"address1": "12 Water St", "address2": null, "address3": "", "city": "Biddeford", "zip_code": "04005", "country": "US", "state": "ME", "display_address": ["12 Water St", "Biddeford, ME 04005"]}, "phone": "+12074949052", "display_phone": "(207) 494-9052", "distance": 20361.66445867336}, {"id": "L3cUjsREoqXy1ctyPd9J9g", "alias": "the-bayou-kitchen-portland", "name": "The Bayou Kitchen", "image_url": "https://s3-media3.fl.yelpcdn.com/bphoto/bh2wgNb0B-QTTefXwzTCBg/o.jpg", "is_closed": false, "url": "https://www.yelp.com/biz/the-bayou-kitchen-portland?adjust_creative=zwxV_le4sw48DviTKOGYUg&utm_campaign=yelp_api_v3&utm_medium=api_v3_business_search&utm_source=zwxV_le4sw48DviTKOGYUg", "review_count": 225, "categories": [{"alias": "breakfast_brunch", "title": "Breakfast & Brunch"}, {"alias": "cajun", "title": "Cajun/Creole"}, {"alias": "burgers", "title": "Burgers"}], "rating": 4.0, "coordinates": {"latitude": 43.67049, "longitude": -70.28428}, "transactions": ["delivery"], "price": "$$", "location": {"address1": "543 Deering Ave", "address2": "", "address3": "", "city": "Portland", "zip_code": "04103", "country": "US", "state": "ME", "display_address": ["543 Deering Ave", "Portland, ME 04103"]}, "phone": "+12077744935", "display_phone": "(207) 774-4935", "distance": 3985.140734740609}, {"id": "4pLOc-hETcvopT20h_6A9w", "alias": "eventide-oyster-company-portland-2", "name": "Eventide Oyster Company", "image_url": "https://s3-media1.fl.yelpcdn.com/bphoto/rE-sGHIROZlLfZBFiiyOQw/o.jpg", "is_closed": false, "url": "https://www.yelp.com/biz/eventide-oyster-company-portland-2?adjust_creative=zwxV_le4sw48DviTKOGYUg&utm_campaign=yelp_api_v3&utm_medium=api_v3_business_search&utm_source=zwxV_le4sw48DviTKOGYUg", "review_count": 3969, "categories": [{"alias": "seafood", "title": "Seafood"}], "rating": 4.5, "coordinates": {"latitude": 43.65943, "longitude": -70.25123}, "transactions": ["delivery"], "price": "$$", "location": {"address1": "86 Middle St", "address2": "", "address3": "", "city": "Portland", "zip_code": "04101", "country": "US", "state": "ME", "display_address": ["86 Middle St", "Portland, ME 04101"]}, "phone": "+12077748538", "display_phone": "(207) 774-8538", "distance": 4254.260542288371}, {"id": "5dABWvsbko2jWcWnbaLZ7A", "alias": "the-friendly-toast-portland", "name": "The Friendly Toast", "image_url": "https://s3-media4.fl.yelpcdn.com/bphoto/glK5t0pmLOTH8ezkd1HhhA/o.jpg", "is_closed": false, "url": "https://www.yelp.com/biz/the-friendly-toast-portland?adjust_creative=zwxV_le4sw48DviTKOGYUg&utm_campaign=yelp_api_v3&utm_medium=api_v3_business_search&utm_source=zwxV_le4sw48DviTKOGYUg", "review_count": 174, "categories": [{"alias": "breakfast_brunch", "title": "Breakfast & Brunch"}, {"alias": "diners", "title": "Diners"}, {"alias": "acaibowls", "title": "Acai Bowls"}], "rating": 4.5, "coordinates": {"latitude": 43.65914, "longitude": -70.25081}, "transactions": [], "price": "$$", "location": {"address1": "211 Fore St", "address2": "", "address3": null, "city": "Portland", "zip_code": "04101", "country": "US", "state": "ME", "display_address": ["211 Fore St", "Portland, ME 04101"]}, "phone": "", "display_phone": "", "distance": 4256.916422652722}, {"id": "mSl4rUTLDVRqj6-EzIU9ew", "alias": "bite-into-maine-cape-elizabeth-3", "name": "Bite Into Maine", "image_url": "https://s3-media2.fl.yelpcdn.com/bphoto/Dnhgz4CTTkyoCMhaN3VDBw/o.jpg", "is_closed": false, "url": "https://www.yelp.com/biz/bite-into-maine-cape-elizabeth-3?adjust_creative=zwxV_le4sw48DviTKOGYUg&utm_campaign=yelp_api_v3&utm_medium=api_v3_business_search&utm_source=zwxV_le4sw48DviTKOGYUg", "review_count": 946, "categories": [{"alias": "seafood", "title": "Seafood"}, {"alias": "foodtrucks", "title": "Food Trucks"}], "rating": 5.0, "coordinates": {"latitude": 43.6230326483706, "longitude": -70.2108703304399}, "transactions": ["delivery"], "price": "$$$", "location": {"address1": "1000 Shore Rd", "address2": "", "address3": "", "city": "Cape Elizabeth", "zip_code": "04107", "country": "US", "state": "ME", "display_address": ["1000 Shore Rd", "Cape Elizabeth, ME 04107"]}, "phone": "+12072896142", "display_phone": "(207) 289-6142", "distance": 6656.901245157437}, {"id": "JpyIWK5srLMBId2e_6luKA", "alias": "o-reillys-cure-scarborough", "name": "O'Reilly's Cure", "image_url": "https://s3-media2.fl.yelpcdn.com/bphoto/RxPa-4_Q5Pb9mSMrCcqGrA/o.jpg", "is_closed": false, "url": "https://www.yelp.com/biz/o-reillys-cure-scarborough?adjust_creative=zwxV_le4sw48DviTKOGYUg&utm_campaign=yelp_api_v3&utm_medium=api_v3_business_search&utm_source=zwxV_le4sw48DviTKOGYUg", "review_count": 152, "categories": [{"alias": "cocktailbars", "title": "Cocktail Bars"}, {"alias": "irish_pubs", "title": "Irish Pub"}, {"alias": "newamerican", "title": "American (New)"}], "rating": 3.5, "coordinates": {"latitude": 43.5888318595189, "longitude": -70.3399762220972}, "transactions": ["delivery", "pickup"], "price": "$$", "location": {"address1": "264 Route 1", "address2": null, "address3": null, "city": "Scarborough", "zip_code": "04074", "country": "US", "state": "ME", "display_address": ["264 Route 1", "Scarborough, ME 04074"]}, "phone": "+12075172222", "display_phone": "(207) 517-2222", "distance": 6432.341543226872}, {"id": "Oj12Qvibci0BARoP4hEFpQ", "alias": "rosies-portland-2", "name": "Rosie's", "image_url": "https://s3-media3.fl.yelpcdn.com/bphoto/9a7DbVdkYSrZNELOHGRfmw/o.jpg", "is_closed": false, "url": "https://www.yelp.com/biz/rosies-portland-2?adjust_creative=zwxV_le4sw48DviTKOGYUg&utm_campaign=yelp_api_v3&utm_medium=api_v3_business_search&utm_source=zwxV_le4sw48DviTKOGYUg", "review_count": 222, "categories": [{"alias": "seafood", "title": "Seafood"}, {"alias": "burgers", "title": "Burgers"}, {"alias": "pubs", "title": "Pubs"}], "rating": 3.5, "coordinates": {"latitude": 43.65694, "longitude": -70.25162}, "transactions": ["delivery"], "price": "$$", "location": {"address1": "330 Fore St", "address2": "", "address3": "", "city": "Portland", "zip_code": "04101", "country": "US", "state": "ME", "display_address": ["330 Fore St", "Portland, ME 04101"]}, "phone": "+12077725656", "display_phone": "(207) 772-5656", "distance": 4053.012236124207}, {"id": "hW6OaCHb3BEXnUAU7a2VMA", "alias": "crooked-mile-portland-2", "name": "Crooked Mile", "image_url": "https://s3-media3.fl.yelpcdn.com/bphoto/OjzzwoUTT0NECApaND4oIQ/o.jpg", "is_closed": false, "url": "https://www.yelp.com/biz/crooked-mile-portland-2?adjust_creative=zwxV_le4sw48DviTKOGYUg&utm_campaign=yelp_api_v3&utm_medium=api_v3_business_search&utm_source=zwxV_le4sw48DviTKOGYUg", "review_count": 14, "categories": [{"alias": "breakfast_brunch", "title": "Breakfast & Brunch"}, {"alias": "sandwiches", "title": "Sandwiches"}], "rating": 4.5, "coordinates": {"latitude": 43.66642, "longitude": -70.29567}, "transactions": ["delivery"], "location": {"address1": "428 Brighton Ave", "address2": "", "address3": null, "city": "Portland", "zip_code": "04102", "country": "US", "state": "ME", "display_address": ["428 Brighton Ave", "Portland, ME 04102"]}, "phone": "+12078356033", "display_phone": "(207) 835-6033", "distance": 3501.13307580402}, {"id": "B85awJ_Emps7kJREsy3LjA", "alias": "eighteen95-portland-4", "name": "Eighteen95", "image_url": "https://s3-media4.fl.yelpcdn.com/bphoto/IpCzWNBe6_QOWBfhIJA8Wg/o.jpg", "is_closed": false, "url": "https://www.yelp.com/biz/eighteen95-portland-4?adjust_creative=zwxV_le4sw48DviTKOGYUg&utm_campaign=yelp_api_v3&utm_medium=api_v3_business_search&utm_source=zwxV_le4sw48DviTKOGYUg", "review_count": 3, "categories": [{"alias": "breakfast_brunch", "title": "Breakfast & Brunch"}], "rating": 5.0, "coordinates": {"latitude": 43.6572927244934, "longitude": -70.2529655603416}, "transactions": ["delivery"], "location": {"address1": "20 Milk St", "address2": "", "address3": null, "city": "Portland", "zip_code": "04101", "country": "US", "state": "ME", "display_address": ["20 Milk St", "Portland, ME 04101"]}, "phone": "+12077744200", "display_phone": "(207) 774-4200", "distance": 3992.470208061576}, {"id": "XlL1eei87kz7GENJso62zg", "alias": "chipotle-mexican-grill-south-portland", "name": "Chipotle Mexican Grill", "image_url": "https://s3-media3.fl.yelpcdn.com/bphoto/vl-1h6apdLfLd5-EugMW1A/o.jpg", "is_closed": false, "url": "https://www.yelp.com/biz/chipotle-mexican-grill-south-portland?adjust_creative=zwxV_le4sw48DviTKOGYUg&utm_campaign=yelp_api_v3&utm_medium=api_v3_business_search&utm_source=zwxV_le4sw48DviTKOGYUg", "review_count": 152, "categories": [{"alias": "mexican", "title": "Mexican"}, {"alias": "hotdogs", "title": "Fast Food"}], "rating": 2.5, "coordinates": {"latitude": 43.6349817867315, "longitude": -70.3378450306711}, "transactions": ["delivery", "pickup"], "price": "$", "location": {"address1": "359 Maine Mall Rd", "address2": "", "address3": "", "city": "South Portland", "zip_code": "04106", "country": "US", "state": "ME", "display_address": ["359 Maine Mall Rd", "South Portland, ME 04106"]}, "phone": "+12077757730", "display_phone": "(207) 775-7730", "distance": 3697.4846568213725}, {"id": "QtUhbrjMc7qEvz1RkREhjA", "alias": "ruskis-tavern-portland", "name": "Ruski's Tavern", "image_url": "https://s3-media4.fl.yelpcdn.com/bphoto/6aZYpKVXGCs_WyRRJXFaWw/o.jpg", "is_closed": false, "url": "https://www.yelp.com/biz/ruskis-tavern-portland?adjust_creative=zwxV_le4sw48DviTKOGYUg&utm_campaign=yelp_api_v3&utm_medium=api_v3_business_search&utm_source=zwxV_le4sw48DviTKOGYUg", "review_count": 124, "categories": [{"alias": "pubs", "title": "Pubs"}, {"alias": "breakfast_brunch", "title": "Breakfast & Brunch"}, {"alias": "divebars", "title": "Dive Bars"}], "rating": 4.0, "coordinates": {"latitude": 43.64806, "longitude": -70.26421}, "transactions": ["delivery"], "price": "$", "location": {"address1": "212 Danforth St", "address2": null, "address3": null, "city": "Portland", "zip_code": "04102", "country": "US", "state": "ME", "display_address": ["212 Danforth St", "Portland, ME 04102"]}, "phone": "+12077747604", "display_phone": "(207) 774-7604", "distance": 2657.066379407923}, {"id": "8RC-f7dlPi9tQjatJRJhmQ", "alias": "chipotle-mexican-grill-saco-3", "name": "Chipotle Mexican Grill", "image_url": "https://s3-media2.fl.yelpcdn.com/bphoto/UHvQiShsJn6iwlOuBgdDTQ/o.jpg", "is_closed": false, "url": "https://www.yelp.com/biz/chipotle-mexican-grill-saco-3?adjust_creative=zwxV_le4sw48DviTKOGYUg&utm_campaign=yelp_api_v3&utm_medium=api_v3_business_search&utm_source=zwxV_le4sw48DviTKOGYUg", "review_count": 15, "categories": [{"alias": "mexican", "title": "Mexican"}, {"alias": "hotdogs", "title": "Fast Food"}], "rating": 1.5, "coordinates": {"latitude": 43.508291377724944, "longitude": -70.43496663897419}, "transactions": [], "location": {"address1": "507 Main St", "address2": "Ste 103", "address3": null, "city": "Saco", "zip_code": "04072", "country": "US", "state": "ME", "display_address": ["507 Main St", "Ste 103", "Saco, ME 04072"]}, "phone": "+12072820235", "display_phone": "(207) 282-0235", "distance": 18206.058771707085}, {"id": "2b4BG68s9-cIooy63tk-UA", "alias": "sea-glass-cape-elizabeth", "name": "Sea Glass", "image_url": "https://s3-media2.fl.yelpcdn.com/bphoto/s8ies3jhtixAppYjG1f1kw/o.jpg", "is_closed": false, "url": "https://www.yelp.com/biz/sea-glass-cape-elizabeth?adjust_creative=zwxV_le4sw48DviTKOGYUg&utm_campaign=yelp_api_v3&utm_medium=api_v3_business_search&utm_source=zwxV_le4sw48DviTKOGYUg", "review_count": 100, "categories": [{"alias": "newamerican", "title": "American (New)"}, {"alias": "breakfast_brunch", "title": "Breakfast & Brunch"}, {"alias": "seafood", "title": "Seafood"}], "rating": 4.0, "coordinates": {"latitude": 43.567211, "longitude": -70.227661}, "transactions": ["delivery", "pickup"], "price": "$$$", "location": {"address1": "40 Bowery Beach Rd", "address2": "", "address3": "", "city": "Cape Elizabeth", "zip_code": "04107", "country": "US", "state": "ME", "display_address": ["40 Bowery Beach Rd", "Cape Elizabeth, ME 04107"]}, "phone": "+12077993134", "display_phone": "(207) 799-3134", "distance": 9160.350570189055}, {"id": "c21_uvOBUhlx_Hb25MKFiw", "alias": "chipotle-mexican-grill-westbrook", "name": "Chipotle Mexican Grill", "image_url": "https://s3-media2.fl.yelpcdn.com/bphoto/B3_dnMlZ1J3COlagxHUAlw/o.jpg", "is_closed": false, "url": "https://www.yelp.com/biz/chipotle-mexican-grill-westbrook?adjust_creative=zwxV_le4sw48DviTKOGYUg&utm_campaign=yelp_api_v3&utm_medium=api_v3_business_search&utm_source=zwxV_le4sw48DviTKOGYUg", "review_count": 86, "categories": [{"alias": "mexican", "title": "Mexican"}, {"alias": "hotdogs", "title": "Fast Food"}], "rating": 1.5, "coordinates": {"latitude": 43.67799, "longitude": -70.329561}, "transactions": ["delivery", "pickup"], "price": "$", "location": {"address1": "11 Main St", "address2": "Ste 3", "address3": "", "city": "Westbrook", "zip_code": "04092", "country": "US", "state": "ME", "display_address": ["11 Main St", "Ste 3", "Westbrook, ME 04092"]}, "phone": "+12078566242", "display_phone": "(207) 856-6242", "distance": 5656.097457021793}, {"id": "VAkznBtnHT3-YdAIHqLs_w", "alias": "crispy-gai-portland", "name": "Crispy Gai", "image_url": "https://s3-media3.fl.yelpcdn.com/bphoto/xAEKRolPrSBPsSE3a6igQg/o.jpg", "is_closed": false, "url": "https://www.yelp.com/biz/crispy-gai-portland?adjust_creative=zwxV_le4sw48DviTKOGYUg&utm_campaign=yelp_api_v3&utm_medium=api_v3_business_search&utm_source=zwxV_le4sw48DviTKOGYUg", "review_count": 103, "categories": [{"alias": "chicken_wings", "title": "Chicken Wings"}, {"alias": "sandwiches", "title": "Sandwiches"}, {"alias": "bars", "title": "Bars"}], "rating": 4.5, "coordinates": {"latitude": 43.658134710563786, "longitude": -70.25550488190476}, "transactions": [], "price": "$$", "location": {"address1": "90 Exchange St", "address2": "", "address3": null, "city": "Portland", "zip_code": "04101", "country": "US", "state": "ME", "display_address": ["90 Exchange St", "Portland, ME 04101"]}, "phone": "+12075361017", "display_phone": "(207) 536-1017", "distance": 3895.3115296478513}, {"id": "1pGX3tIpt9De3lIyhxAK0A", "alias": "duffys-tavern-and-grill-old-orchard-beach", "name": "Duffy's Tavern and Grill", "image_url": "https://s3-media4.fl.yelpcdn.com/bphoto/ab50QX7En_hojH2qB_m4Eg/o.jpg", "is_closed": false, "url": "https://www.yelp.com/biz/duffys-tavern-and-grill-old-orchard-beach?adjust_creative=zwxV_le4sw48DviTKOGYUg&utm_campaign=yelp_api_v3&utm_medium=api_v3_business_search&utm_source=zwxV_le4sw48DviTKOGYUg", "review_count": 72, "categories": [{"alias": "seafood", "title": "Seafood"}, {"alias": "tradamerican", "title": "American (Traditional)"}, {"alias": "venues", "title": "Venues & Event Spaces"}], "rating": 3.0, "coordinates": {"latitude": 43.51112, "longitude": -70.40046}, "transactions": ["delivery", "pickup"], "price": "$$", "location": {"address1": "168 Saco Ave", "address2": "", "address3": "", "city": "Old Orchard Beach", "zip_code": "04064", "country": "US", "state": "ME", "display_address": ["168 Saco Ave", "Old Orchard Beach, ME 04064"]}, "phone": "+12079375100", "display_phone": "(207) 937-5100", "distance": 16320.346435417647}, {"id": "J4VfRCQc0f2wVSxVPC8ykQ", "alias": "mister-bagel-mall-south-portland", "name": "Mister Bagel Mall", "image_url": "https://s3-media1.fl.yelpcdn.com/bphoto/guZssC3wdZCocU1N4yzmhA/o.jpg", "is_closed": false, "url": "https://www.yelp.com/biz/mister-bagel-mall-south-portland?adjust_creative=zwxV_le4sw48DviTKOGYUg&utm_campaign=yelp_api_v3&utm_medium=api_v3_business_search&utm_source=zwxV_le4sw48DviTKOGYUg", "review_count": 53, "categories": [{"alias": "delis", "title": "Delis"}, {"alias": "bagels", "title": "Bagels"}, {"alias": "breakfast_brunch", "title": "Breakfast & Brunch"}], "rating": 3.5, "coordinates": {"latitude": 43.63795, "longitude": -70.33481}, "transactions": ["delivery", "pickup"], "price": "$", "location": {"address1": "220 Maine Mall Rd", "address2": "", "address3": "", "city": "South Portland", "zip_code": "04106", "country": "US", "state": "ME", "display_address": ["220 Maine Mall Rd", "South Portland, ME 04106"]}, "phone": "+12077733238", "display_phone": "(207) 773-3238", "distance": 3322.275876119137}, {"id": "QAE2DeILGOF-ND0e5yejug", "alias": "hifi-donuts-portland-3", "name": "HiFi Donuts", "image_url": "https://s3-media2.fl.yelpcdn.com/bphoto/thLAFgEWQ8Mn74JqvanyIg/o.jpg", "is_closed": false, "url": "https://www.yelp.com/biz/hifi-donuts-portland-3?adjust_creative=zwxV_le4sw48DviTKOGYUg&utm_campaign=yelp_api_v3&utm_medium=api_v3_business_search&utm_source=zwxV_le4sw48DviTKOGYUg", "review_count": 234, "categories": [{"alias": "donuts", "title": "Donuts"}, {"alias": "coffee", "title": "Coffee & Tea"}, {"alias": "breakfast_brunch", "title": "Breakfast & Brunch"}], "rating": 4.5, "coordinates": {"latitude": 43.65712, "longitude": -70.25805}, "transactions": ["delivery", "pickup"], "price": "$", "location": {"address1": "30 City Ctr", "address2": null, "address3": null, "city": "Portland", "zip_code": "04101", "country": "US", "state": "ME", "display_address": ["30 City Ctr", "Portland, ME 04101"]}, "phone": "+12077475314", "display_phone": "(207) 747-5314", "distance": 3677.16320542474}, {"id": "OV_E6HgjXd6oQFbgt_pzyQ", "alias": "q-street-diner-south-portland-2", "name": "Q Street Diner", "image_url": "https://s3-media2.fl.yelpcdn.com/bphoto/ls91qOhmiEhqS82UDYH8yQ/o.jpg", "is_closed": false, "url": "https://www.yelp.com/biz/q-street-diner-south-portland-2?adjust_creative=zwxV_le4sw48DviTKOGYUg&utm_campaign=yelp_api_v3&utm_medium=api_v3_business_search&utm_source=zwxV_le4sw48DviTKOGYUg", "review_count": 107, "categories": [{"alias": "breakfast_brunch", "title": "Breakfast & Brunch"}, {"alias": "tradamerican", "title": "American (Traditional)"}], "rating": 4.0, "coordinates": {"latitude": 43.637651, "longitude": -70.2540807}, "transactions": ["delivery"], "price": "$", "location": {"address1": "9 Q St", "address2": "", "address3": "", "city": "South Portland", "zip_code": "04106", "country": "US", "state": "ME", "display_address": ["9 Q St", "South Portland, ME 04106"]}, "phone": "+12077670299", "display_phone": "(207) 767-0299", "distance": 3057.446596417613}, {"id": "GwMI5lBjDk_NlDF-PqFt8w", "alias": "the-highroller-lobster-portland-2", "name": "The Highroller Lobster", "image_url": "https://s3-media1.fl.yelpcdn.com/bphoto/Du2XHbg2WityW5BImhPtoA/o.jpg", "is_closed": false, "url": "https://www.yelp.com/biz/the-highroller-lobster-portland-2?adjust_creative=zwxV_le4sw48DviTKOGYUg&utm_campaign=yelp_api_v3&utm_medium=api_v3_business_search&utm_source=zwxV_le4sw48DviTKOGYUg", "review_count": 1689, "categories": [{"alias": "seafood", "title": "Seafood"}, {"alias": "tradamerican", "title": "American (Traditional)"}, {"alias": "bars", "title": "Bars"}], "rating": 4.5, "coordinates": {"latitude": 43.658297, "longitude": -70.256063}, "transactions": ["delivery", "pickup"], "price": "$$", "location": {"address1": "104 Exchange St", "address2": "", "address3": "", "city": "Portland", "zip_code": "04101", "country": "US", "state": "ME", "display_address": ["104 Exchange St", "Portland, ME 04101"]}, "phone": "+12075361623", "display_phone": "(207) 536-1623", "distance": 3873.6877544130207}, {"id": "ZOWMxBu1pmKlYiOMFipdRQ", "alias": "palace-diner-biddeford", "name": "Palace Diner", "image_url": "https://s3-media2.fl.yelpcdn.com/bphoto/A7bXDIxV5OIdLNVh1lcWdQ/o.jpg", "is_closed": false, "url": "https://www.yelp.com/biz/palace-diner-biddeford?adjust_creative=zwxV_le4sw48DviTKOGYUg&utm_campaign=yelp_api_v3&utm_medium=api_v3_business_search&utm_source=zwxV_le4sw48DviTKOGYUg", "review_count": 366, "categories": [{"alias": "breakfast_brunch", "title": "Breakfast & Brunch"}, {"alias": "diners", "title": "Diners"}], "rating": 4.5, "coordinates": {"latitude": 43.49267, "longitude": -70.4547}, "transactions": ["delivery"], "price": "$$", "location": {"address1": "18 Franklin St", "address2": "", "address3": "", "city": "Biddeford", "zip_code": "04005", "country": "US", "state": "ME", "display_address": ["18 Franklin St", "Biddeford, ME 04005"]}, "phone": "+12072840015", "display_phone": "(207) 284-0015", "distance": 20558.87811187281}, {"id": "2RBgSM4I6viQX6SLwJyDOw", "alias": "el-rodeo-go-portland", "name": "El Rodeo Go", "image_url": "https://s3-media2.fl.yelpcdn.com/bphoto/H6V2QEdC4hxtUfPXx6w4NA/o.jpg", "is_closed": false, "url": "https://www.yelp.com/biz/el-rodeo-go-portland?adjust_creative=zwxV_le4sw48DviTKOGYUg&utm_campaign=yelp_api_v3&utm_medium=api_v3_business_search&utm_source=zwxV_le4sw48DviTKOGYUg", "review_count": 8, "categories": [{"alias": "foodtrucks", "title": "Food Trucks"}], "rating": 4.5, "coordinates": {"latitude": 43.661792755127, "longitude": -70.2584991455078}, "transactions": [], "location": {"address1": "", "address2": null, "address3": "", "city": "Portland", "zip_code": "04101", "country": "US", "state": "ME", "display_address": ["Portland, ME 04101"]}, "phone": "+12077738851", "display_phone": "(207) 773-8851", "distance": 4196.1287832203225}, {"id": "___WimefMf1rCehLXa4mjQ", "alias": "taco-bell-saco-3", "name": "Taco Bell", "image_url": "https://s3-media1.fl.yelpcdn.com/bphoto/dJzDknd52D2Wku2uD6IzjA/o.jpg", "is_closed": false, "url": "https://www.yelp.com/biz/taco-bell-saco-3?adjust_creative=zwxV_le4sw48DviTKOGYUg&utm_campaign=yelp_api_v3&utm_medium=api_v3_business_search&utm_source=zwxV_le4sw48DviTKOGYUg", "review_count": 17, "categories": [{"alias": "mexican", "title": "Mexican"}, {"alias": "hotdogs", "title": "Fast Food"}], "rating": 2.0, "coordinates": {"latitude": 43.509251, "longitude": -70.434563}, "transactions": ["delivery"], "price": "$", "location": {"address1": "491 Main St.", "address2": "", "address3": "", "city": "Saco", "zip_code": "04072", "country": "US", "state": "ME", "display_address": ["491 Main St.", "Saco, ME 04072"]}, "phone": "+12072831448", "display_phone": "(207) 283-1448", "distance": 18102.86433977383}, {"id": "pT259QLwg1Pr16BCert1eA", "alias": "fore-street-portland", "name": "Fore Street", "image_url": "https://s3-media3.fl.yelpcdn.com/bphoto/h7f33f4nddlfy4FlJFEp5w/o.jpg", "is_closed": false, "url": "https://www.yelp.com/biz/fore-street-portland?adjust_creative=zwxV_le4sw48DviTKOGYUg&utm_campaign=yelp_api_v3&utm_medium=api_v3_business_search&utm_source=zwxV_le4sw48DviTKOGYUg", "review_count": 1247, "categories": [{"alias": "newamerican", "title": "American (New)"}, {"alias": "seafood", "title": "Seafood"}], "rating": 4.0, "coordinates": {"latitude": 43.65818383774291, "longitude": -70.25098375201219}, "transactions": [], "price": "$$$", "location": {"address1": "288 Fore St", "address2": "", "address3": "", "city": "Portland", "zip_code": "04101", "country": "US", "state": "ME", "display_address": ["288 Fore St", "Portland, ME 04101"]}, "phone": "+12077752717", "display_phone": "(207) 775-2717", "distance": 4179.05421868863}, {"id": "RfeDIXuHyFfTF5QYpjK7CA", "alias": "stacks-pancake-portland", "name": "Stacks Pancake", "image_url": "https://s3-media2.fl.yelpcdn.com/bphoto/c-6zHsaB1NfVJxM0tXmuaw/o.jpg", "is_closed": false, "url": "https://www.yelp.com/biz/stacks-pancake-portland?adjust_creative=zwxV_le4sw48DviTKOGYUg&utm_campaign=yelp_api_v3&utm_medium=api_v3_business_search&utm_source=zwxV_le4sw48DviTKOGYUg", "review_count": 47, "categories": [{"alias": "breakfast_brunch", "title": "Breakfast & Brunch"}], "rating": 3.0, "coordinates": {"latitude": 43.681616329877315, "longitude": -70.32831459173538}, "transactions": ["delivery", "pickup"], "location": {"address1": "139 Riverside St", "address2": null, "address3": "", "city": "Portland", "zip_code": "04103", "country": "US", "state": "ME", "display_address": ["139 Riverside St", "Portland, ME 04103"]}, "phone": "+12075361018", "display_phone": "(207) 536-1018", "distance": 5950.580160429708}, {"id": "zPfg3n_-TXN0u05HThar9Q", "alias": "bayside-american-cafe-portland", "name": "Bayside American Cafe", "image_url": "https://s3-media3.fl.yelpcdn.com/bphoto/OLfTz5FUXuP53njsY7K6vw/o.jpg", "is_closed": false, "url": "https://www.yelp.com/biz/bayside-american-cafe-portland?adjust_creative=zwxV_le4sw48DviTKOGYUg&utm_campaign=yelp_api_v3&utm_medium=api_v3_business_search&utm_source=zwxV_le4sw48DviTKOGYUg", "review_count": 1025, "categories": [{"alias": "breakfast_brunch", "title": "Breakfast & Brunch"}, {"alias": "sandwiches", "title": "Sandwiches"}, {"alias": "wraps", "title": "Wraps"}], "rating": 4.5, "coordinates": {"latitude": 43.6576897226602, "longitude": -70.2656469439311}, "transactions": ["delivery"], "price": "$$", "location": {"address1": "98 Portland St", "address2": "", "address3": "", "city": "Portland", "zip_code": "04101", "country": "US", "state": "ME", "display_address": ["98 Portland St", "Portland, ME 04101"]}, "phone": "+12077740005", "display_phone": "(207) 774-0005", "distance": 3287.5736526694204}, {"id": "kyarNtwFc9hqHFsDmbN7yw", "alias": "flatbread-company-portland", "name": "Flatbread Company", "image_url": "https://s3-media2.fl.yelpcdn.com/bphoto/t5cizIIqmB2J4i39FvPV8g/o.jpg", "is_closed": false, "url": "https://www.yelp.com/biz/flatbread-company-portland?adjust_creative=zwxV_le4sw48DviTKOGYUg&utm_campaign=yelp_api_v3&utm_medium=api_v3_business_search&utm_source=zwxV_le4sw48DviTKOGYUg", "review_count": 795, "categories": [{"alias": "pizza", "title": "Pizza"}, {"alias": "salad", "title": "Salad"}, {"alias": "beerbar", "title": "Beer Bar"}], "rating": 4.5, "coordinates": {"latitude": 43.6573550703061, "longitude": -70.2500543525629}, "transactions": ["delivery", "pickup"], "price": "$$", "location": {"address1": "72 Commercial St", "address2": "", "address3": "", "city": "Portland", "zip_code": "04101", "country": "US", "state": "ME", "display_address": ["72 Commercial St", "Portland, ME 04101"]}, "phone": "+12077728777", "display_phone": "(207) 772-8777", "distance": 4182.907242592546}, {"id": "KNteodS8nCyHNwIfoMtXUQ", "alias": "the-lobster-shack-cape-elizabeth", "name": "The Lobster Shack", "image_url": "https://s3-media3.fl.yelpcdn.com/bphoto/XCPPhwONya8237OVFvtBTQ/o.jpg", "is_closed": false, "url": "https://www.yelp.com/biz/the-lobster-shack-cape-elizabeth?adjust_creative=zwxV_le4sw48DviTKOGYUg&utm_campaign=yelp_api_v3&utm_medium=api_v3_business_search&utm_source=zwxV_le4sw48DviTKOGYUg", "review_count": 809, "categories": [{"alias": "seafood", "title": "Seafood"}], "rating": 3.5, "coordinates": {"latitude": 43.564069, "longitude": -70.199021}, "transactions": ["delivery"], "price": "$$", "location": {"address1": "225 Two Lights Rd", "address2": "", "address3": "", "city": "Cape Elizabeth", "zip_code": "04107", "country": "US", "state": "ME", "display_address": ["225 Two Lights Rd", "Cape Elizabeth, ME 04107"]}, "phone": "+12077991677", "display_phone": "(207) 799-1677", "distance": 10872.246118643168}, {"id": "U2Tb2YsseKrJYTRJVK5k_w", "alias": "portland-pie-co-westbrook-3", "name": "Portland Pie Co", "image_url": "https://s3-media4.fl.yelpcdn.com/bphoto/e3HDq2LzGX9-DdL6K1pnnA/o.jpg", "is_closed": false, "url": "https://www.yelp.com/biz/portland-pie-co-westbrook-3?adjust_creative=zwxV_le4sw48DviTKOGYUg&utm_campaign=yelp_api_v3&utm_medium=api_v3_business_search&utm_source=zwxV_le4sw48DviTKOGYUg", "review_count": 122, "categories": [{"alias": "pizza", "title": "Pizza"}, {"alias": "pubs", "title": "Pubs"}], "rating": 2.5, "coordinates": {"latitude": 43.6769505896608, "longitude": -70.3671030039931}, "transactions": ["delivery", "pickup"], "price": "$$", "location": {"address1": "869 Main St", "address2": "", "address3": null, "city": "Westbrook", "zip_code": "04092", "country": "US", "state": "ME", "display_address": ["869 Main St", "Westbrook, ME 04092"]}, "phone": "+12075916248", "display_phone": "(207) 591-6248", "distance": 7637.088029161462}, {"id": "PrENtAsmH014_DxpUWu2YQ", "alias": "taco-bell-scarborough-2", "name": "Taco Bell", "image_url": "https://s3-media4.fl.yelpcdn.com/bphoto/0JAvljw_PaXunNxOwAOU-g/o.jpg", "is_closed": false, "url": "https://www.yelp.com/biz/taco-bell-scarborough-2?adjust_creative=zwxV_le4sw48DviTKOGYUg&utm_campaign=yelp_api_v3&utm_medium=api_v3_business_search&utm_source=zwxV_le4sw48DviTKOGYUg", "review_count": 33, "categories": [{"alias": "hotdogs", "title": "Fast Food"}, {"alias": "mexican", "title": "Mexican"}], "rating": 1.5, "coordinates": {"latitude": 43.62477, "longitude": -70.3439099}, "transactions": ["delivery"], "price": "$", "location": {"address1": "400 Gallery Boulevard", "address2": null, "address3": null, "city": "Scarborough", "zip_code": "04074", "country": "US", "state": "ME", "display_address": ["400 Gallery Boulevard", "Scarborough, ME 04074"]}, "phone": "+12078831110", "display_phone": "(207) 883-1110", "distance": 4322.9427762831965}, {"id": "hlqDA0qiQoTDTeEHtAkltg", "alias": "ocean-taco-bar-old-orchard-beach-2", "name": "Ocean Taco Bar", "image_url": "", "is_closed": false, "url": "https://www.yelp.com/biz/ocean-taco-bar-old-orchard-beach-2?adjust_creative=zwxV_le4sw48DviTKOGYUg&utm_campaign=yelp_api_v3&utm_medium=api_v3_business_search&utm_source=zwxV_le4sw48DviTKOGYUg", "review_count": 2, "categories": [{"alias": "tacos", "title": "Tacos"}], "rating": 3.0, "coordinates": {"latitude": 43.516958, "longitude": -70.377068}, "transactions": [], "location": {"address1": "41 Old Orchard St", "address2": null, "address3": "", "city": "Old Orchard Beach", "zip_code": "04064", "country": "US", "state": "ME", "display_address": ["41 Old Orchard St", "Old Orchard Beach, ME 04064"]}, "phone": "", "display_phone": "", "distance": 14814.409587962848}, {"id": "bKotOArqDsi2aUL9EdkxCA", "alias": "george-s-north-shore-portland", "name": "George\u2019s North Shore", "image_url": "https://s3-media1.fl.yelpcdn.com/bphoto/qXtKr9Or-xCdCWr2qhUPtg/o.jpg", "is_closed": false, "url": "https://www.yelp.com/biz/george-s-north-shore-portland?adjust_creative=zwxV_le4sw48DviTKOGYUg&utm_campaign=yelp_api_v3&utm_medium=api_v3_business_search&utm_source=zwxV_le4sw48DviTKOGYUg", "review_count": 13, "categories": [{"alias": "foodtrucks", "title": "Food Trucks"}, {"alias": "streetvendors", "title": "Street Vendors"}], "rating": 4.5, "coordinates": {"latitude": 43.65842819213867, "longitude": -70.25782775878906}, "transactions": [], "location": {"address1": "", "address2": "", "address3": null, "city": "Portland", "zip_code": "04101", "country": "US", "state": "ME", "display_address": ["Portland, ME 04101"]}, "phone": "+19784575226", "display_phone": "(978) 457-5226", "distance": 4196.1287832203225}, {"id": "BVEtdJxim2mwSqLsB_nFfw", "alias": "taco-bell-westbrook", "name": "Taco Bell", "image_url": "https://s3-media2.fl.yelpcdn.com/bphoto/E19tDjg3KAaNbPL3pwo_fQ/o.jpg", "is_closed": false, "url": "https://www.yelp.com/biz/taco-bell-westbrook?adjust_creative=zwxV_le4sw48DviTKOGYUg&utm_campaign=yelp_api_v3&utm_medium=api_v3_business_search&utm_source=zwxV_le4sw48DviTKOGYUg", "review_count": 21, "categories": [{"alias": "hotdogs", "title": "Fast Food"}, {"alias": "mexican", "title": "Mexican"}], "rating": 1.5, "coordinates": {"latitude": 43.678021, "longitude": -70.336243}, "transactions": ["delivery"], "price": "$", "location": {"address1": "140 Main St.", "address2": "", "address3": "", "city": "Westbrook", "zip_code": "04092", "country": "US", "state": "ME", "display_address": ["140 Main St.", "Westbrook, ME 04092"]}, "phone": "+12078542546", "display_phone": "(207) 854-2546", "distance": 5964.23614851872}, {"id": "xI2lJLLr5QkNlVC6Om63vA", "alias": "ihop-portland-15", "name": "IHOP", "image_url": "https://s3-media3.fl.yelpcdn.com/bphoto/sBx-Bz_LjDN6MyfV6aZOOA/o.jpg", "is_closed": false, "url": "https://www.yelp.com/biz/ihop-portland-15?adjust_creative=zwxV_le4sw48DviTKOGYUg&utm_campaign=yelp_api_v3&utm_medium=api_v3_business_search&utm_source=zwxV_le4sw48DviTKOGYUg", "review_count": 83, "categories": [{"alias": "breakfast_brunch", "title": "Breakfast & Brunch"}, {"alias": "tradamerican", "title": "American (Traditional)"}, {"alias": "burgers", "title": "Burgers"}], "rating": 4.0, "coordinates": {"latitude": 43.63979, "longitude": -70.3347}, "transactions": ["delivery", "pickup"], "price": "$$", "location": {"address1": "195 Maine Mall Rd", "address2": "", "address3": "", "city": "Portland", "zip_code": "04106", "country": "US", "state": "ME", "display_address": ["195 Maine Mall Rd", "Portland, ME 04106"]}, "phone": "+18339251371", "display_phone": "(833) 925-1371", "distance": 3484.5853676707643}, {"id": "KmDqvVXQBKSHxrF9BbAWOQ", "alias": "the-frog-and-turtle-westbrook-2", "name": "The Frog & Turtle", "image_url": "https://s3-media2.fl.yelpcdn.com/bphoto/V85hbAzgxH1fNtYP38kQZg/o.jpg", "is_closed": false, "url": "https://www.yelp.com/biz/the-frog-and-turtle-westbrook-2?adjust_creative=zwxV_le4sw48DviTKOGYUg&utm_campaign=yelp_api_v3&utm_medium=api_v3_business_search&utm_source=zwxV_le4sw48DviTKOGYUg", "review_count": 209, "categories": [{"alias": "french", "title": "French"}, {"alias": "breakfast_brunch", "title": "Breakfast & Brunch"}, {"alias": "gastropubs", "title": "Gastropubs"}], "rating": 3.5, "coordinates": {"latitude": 43.677037998919374, "longitude": -70.36677294234843}, "transactions": ["delivery"], "price": "$$", "location": {"address1": "3 Vallee Square", "address2": "", "address3": "", "city": "Westbrook", "zip_code": "04092", "country": "US", "state": "ME", "display_address": ["3 Vallee Square", "Westbrook, ME 04092"]}, "phone": "+12075914185", "display_phone": "(207) 591-4185", "distance": 7622.018713692994}, {"id": "XB50fZ5E0mWZ_0yXNRom-g", "alias": "taco-bell-portland-38", "name": "Taco Bell", "image_url": "https://s3-media2.fl.yelpcdn.com/bphoto/5-Rabq7GrOv_jRaLWkOJLA/o.jpg", "is_closed": false, "url": "https://www.yelp.com/biz/taco-bell-portland-38?adjust_creative=zwxV_le4sw48DviTKOGYUg&utm_campaign=yelp_api_v3&utm_medium=api_v3_business_search&utm_source=zwxV_le4sw48DviTKOGYUg", "review_count": 28, "categories": [{"alias": "mexican", "title": "Mexican"}, {"alias": "hotdogs", "title": "Fast Food"}], "rating": 2.0, "coordinates": {"latitude": 43.699365, "longitude": -70.287248}, "transactions": ["delivery"], "price": "$", "location": {"address1": "1363 Washington", "address2": "", "address3": null, "city": "Portland", "zip_code": "04103", "country": "US", "state": "ME", "display_address": ["1363 Washington", "Portland, ME 04103"]}, "phone": "+12074052386", "display_phone": "(207) 405-2386", "distance": 6232.439391124534}, {"id": "WsgD_GM0arc0d8q5eDmhsA", "alias": "punkys-portland-2", "name": "Punky's", "image_url": "https://s3-media1.fl.yelpcdn.com/bphoto/qbATP1lQZCBhj2hmN7Ao6w/o.jpg", "is_closed": false, "url": "https://www.yelp.com/biz/punkys-portland-2?adjust_creative=zwxV_le4sw48DviTKOGYUg&utm_campaign=yelp_api_v3&utm_medium=api_v3_business_search&utm_source=zwxV_le4sw48DviTKOGYUg", "review_count": 48, "categories": [{"alias": "burgers", "title": "Burgers"}, {"alias": "sandwiches", "title": "Sandwiches"}, {"alias": "salad", "title": "Salad"}], "rating": 4.0, "coordinates": {"latitude": 43.66321, "longitude": -70.28509}, "transactions": ["delivery"], "price": "$", "location": {"address1": "186 Brighton Ave", "address2": null, "address3": null, "city": "Portland", "zip_code": "04102", "country": "US", "state": "ME", "display_address": ["186 Brighton Ave", "Portland, ME 04102"]}, "phone": "+12077738885", "display_phone": "(207) 773-8885", "distance": 3182.0876244558644}, {"id": "UMmHzSF-TG74I0sIrCzD5A", "alias": "ihop-saco", "name": "IHOP", "image_url": "https://s3-media3.fl.yelpcdn.com/bphoto/3FIo4IO30kTE_BCapQMNbA/o.jpg", "is_closed": false, "url": "https://www.yelp.com/biz/ihop-saco?adjust_creative=zwxV_le4sw48DviTKOGYUg&utm_campaign=yelp_api_v3&utm_medium=api_v3_business_search&utm_source=zwxV_le4sw48DviTKOGYUg", "review_count": 55, "categories": [{"alias": "breakfast_brunch", "title": "Breakfast & Brunch"}, {"alias": "burgers", "title": "Burgers"}, {"alias": "tradamerican", "title": "American (Traditional)"}], "rating": 2.0, "coordinates": {"latitude": 43.5091, "longitude": -70.4344}, "transactions": ["delivery", "pickup"], "location": {"address1": "515 Main St", "address2": "", "address3": null, "city": "Saco", "zip_code": "04072", "country": "US", "state": "ME", "display_address": ["515 Main St", "Saco, ME 04072"]}, "phone": "+18339280985", "display_phone": "(833) 928-0985", "distance": 18107.521043806097}, {"id": "fgiL5bEk1OxRUUsBWxsNgA", "alias": "boones-fish-house-and-oyster-room-portland", "name": "Boone's Fish House & Oyster Room", "image_url": "https://s3-media3.fl.yelpcdn.com/bphoto/kgbbNRDlFKPyvjiPTYRGRQ/o.jpg", "is_closed": false, "url": "https://www.yelp.com/biz/boones-fish-house-and-oyster-room-portland?adjust_creative=zwxV_le4sw48DviTKOGYUg&utm_campaign=yelp_api_v3&utm_medium=api_v3_business_search&utm_source=zwxV_le4sw48DviTKOGYUg", "review_count": 804, "categories": [{"alias": "seafood", "title": "Seafood"}, {"alias": "cocktailbars", "title": "Cocktail Bars"}, {"alias": "fishnchips", "title": "Fish & Chips"}], "rating": 3.0, "coordinates": {"latitude": 43.656529144112945, "longitude": -70.2501919313185}, "transactions": ["delivery"], "price": "$$$", "location": {"address1": "86 Commercial St", "address2": "", "address3": "on Custom House Wharf", "city": "Portland", "zip_code": "04101", "country": "US", "state": "ME", "display_address": ["86 Commercial St", "on Custom House Wharf", "Portland, ME 04101"]}, "phone": "+12077745725", "display_phone": "(207) 774-5725", "distance": 4120.074600726617}, {"id": "LfMjDhO0QMEAD9YBMjmRDQ", "alias": "applebees-grill-bar-south-portland", "name": "Applebee's Grill + Bar", "image_url": "https://s3-media2.fl.yelpcdn.com/bphoto/OYhb5cDHEh2pQ8xs0I7dEw/o.jpg", "is_closed": false, "url": "https://www.yelp.com/biz/applebees-grill-bar-south-portland?adjust_creative=zwxV_le4sw48DviTKOGYUg&utm_campaign=yelp_api_v3&utm_medium=api_v3_business_search&utm_source=zwxV_le4sw48DviTKOGYUg", "review_count": 43, "categories": [{"alias": "sportsbars", "title": "Sports Bars"}, {"alias": "burgers", "title": "Burgers"}, {"alias": "tradamerican", "title": "American (Traditional)"}], "rating": 3.0, "coordinates": {"latitude": 43.635295, "longitude": -70.343613}, "transactions": ["delivery", "pickup"], "price": "$$", "location": {"address1": "200 Running Hill Rd", "address2": "", "address3": "", "city": "South Portland", "zip_code": "04106", "country": "US", "state": "ME", "display_address": ["200 Running Hill Rd", "South Portland, ME 04106"]}, "phone": "+12078799155", "display_phone": "(207) 879-9155", "distance": 4161.759942147152}, {"id": "Fy78oausObc79jiwqgYRmg", "alias": "top-of-the-east-portland-2", "name": "Top of the East ", "image_url": "https://s3-media3.fl.yelpcdn.com/bphoto/No93ePy3DmwJLnZtjEqLZQ/o.jpg", "is_closed": false, "url": "https://www.yelp.com/biz/top-of-the-east-portland-2?adjust_creative=zwxV_le4sw48DviTKOGYUg&utm_campaign=yelp_api_v3&utm_medium=api_v3_business_search&utm_source=zwxV_le4sw48DviTKOGYUg", "review_count": 146, "categories": [{"alias": "lounges", "title": "Lounges"}], "rating": 3.0, "coordinates": {"latitude": 43.6548767089844, "longitude": -70.2638168334961}, "transactions": ["delivery"], "price": "$$$", "location": {"address1": "157 High St", "address2": "", "address3": "", "city": "Portland", "zip_code": "04101", "country": "US", "state": "ME", "display_address": ["157 High St", "Portland, ME 04101"]}, "phone": "+12077755411", "display_phone": "(207) 775-5411", "distance": 3150.1776455142253}, {"id": "-ojZkt4gDdq57IreZwZE1w", "alias": "chipotle-mexican-grill-saco-2", "name": "Chipotle Mexican Grill", "image_url": "https://s3-media1.fl.yelpcdn.com/bphoto/OsNabAsL4fcVbJHnb8u9LA/o.jpg", "is_closed": false, "url": "https://www.yelp.com/biz/chipotle-mexican-grill-saco-2?adjust_creative=zwxV_le4sw48DviTKOGYUg&utm_campaign=yelp_api_v3&utm_medium=api_v3_business_search&utm_source=zwxV_le4sw48DviTKOGYUg", "review_count": 14, "categories": [{"alias": "hotdogs", "title": "Fast Food"}, {"alias": "mexican", "title": "Mexican"}], "rating": 1.5, "coordinates": {"latitude": 43.50828489756584, "longitude": -70.43497506404636}, "transactions": [], "location": {"address1": "45 Smith Ln", "address2": "Ste 103", "address3": null, "city": "Saco", "zip_code": "04072", "country": "US", "state": "ME", "display_address": ["45 Smith Ln", "Ste 103", "Saco, ME 04072"]}, "phone": "", "display_phone": "", "distance": 18207.046635493953}]